[
  {
    "city": "Tokyo",
    "country": "Japan",
    "lat": 35.685,
    "lng": 139.7514,
    "population": 35676000
  },
  {
    "city": "Mexico City",
    "country": "Mexico",
    "lat": 19.4424,
    "lng": -99.131,
    "population": 19028000
  },
  {
    "city": "Mumbai",
    "country": "India",
    "lat": 19.017,
    "lng": 72.857,
    "population": 18978000
  },
  {
    "city": "Sao Paulo",
    "country": "Brazil",
    "lat": -23.5587,
    "lng": -46.625,
    "population": 18845000
  },
  {
    "city": "Delhi",
    "country": "India",
    "lat": 28.67,
    "lng": 77.23,
    "population": 15926000
  },
  {
    "city": "Shanghai",
    "country": "China",
    "lat": 31.2165,
    "lng": 121.4365,
    "population": 14987000
  },
  {
    "city": "Kolkata",
    "country": "India",
    "lat": 22.495,
    "lng": 88.3247,
    "population": 14787000
  },
  {
    "city": "Dhaka",
    "country": "Bangladesh",
    "lat": 23.7231,
    "lng": 90.4086,
    "population": 12797394
  },
  {
    "city": "Buenos Aires",
    "country": "Argentina",
    "lat": -34.6025,
    "lng": -58.3975,
    "population": 12795000
  },
  {
    "city": "Karachi",
    "country": "Pakistan",
    "lat": 24.87,
    "lng": 66.99,
    "population": 12130000
  },
  {
    "city": "Cairo",
    "country": "Egypt",
    "lat": 30.05,
    "lng": 31.25,
    "population": 11893000
  },
  {
    "city": "Rio de Janeiro",
    "country": "Brazil",
    "lat": -22.925,
    "lng": -43.225,
    "population": 11748000
  },
  {
    "city": "Osaka",
    "country": "Japan",
    "lat": 34.75,
    "lng": 135.4601,
    "population": 11294000
  },
  {
    "city": "Beijing",
    "country": "China",
    "lat": 39.9289,
    "lng": 116.3883,
    "population": 11106000
  },
  {
    "city": "Manila",
    "country": "Philippines",
    "lat": 14.6042,
    "lng": 120.9822,
    "population": 11100000
  },
  {
    "city": "Moscow",
    "country": "Russia",
    "lat": 55.7522,
    "lng": 37.6155,
    "population": 10452000
  },
  {
    "city": "Istanbul",
    "country": "Turkey",
    "lat": 41.105,
    "lng": 29.01,
    "population": 10061000
  },
  {
    "city": "Paris",
    "country": "France",
    "lat": 48.8667,
    "lng": 2.3333,
    "population": 9904000
  },
  {
    "city": "Seoul",
    "country": "Korea, South",
    "lat": 37.5663,
    "lng": 126.9997,
    "population": 9796000
  },
  {
    "city": "Lagos",
    "country": "Nigeria",
    "lat": 6.4433,
    "lng": 3.3915,
    "population": 9466000
  },
  {
    "city": "Jakarta",
    "country": "Indonesia",
    "lat": -6.1744,
    "lng": 106.8294,
    "population": 9125000
  },
  {
    "city": "Guangzhou",
    "country": "China",
    "lat": 23.145,
    "lng": 113.325,
    "population": 8829000
  },
  {
    "city": "London",
    "country": "United Kingdom",
    "lat": 51.5,
    "lng": -0.1167,
    "population": 8567000
  },
  {
    "city": "Lima",
    "country": "Peru",
    "lat": -12.048,
    "lng": -77.0501,
    "population": 8012000
  },
  {
    "city": "Tehran",
    "country": "Iran",
    "lat": 35.6719,
    "lng": 51.4243,
    "population": 7873000
  },
  {
    "city": "Kinshasa",
    "country": "Congo (Kinshasa)",
    "lat": -4.3297,
    "lng": 15.315,
    "population": 7843000
  },
  {
    "city": "Bogota",
    "country": "Colombia",
    "lat": 4.5964,
    "lng": -74.0833,
    "population": 7772000
  },
  {
    "city": "Shenzhen",
    "country": "China",
    "lat": 22.5524,
    "lng": 114.1221,
    "population": 7581000
  },
  {
    "city": "Wuhan",
    "country": "China",
    "lat": 30.58,
    "lng": 114.27,
    "population": 7243000
  },
  {
    "city": "Hong Kong",
    "country": "Hong Kong",
    "lat": 22.305,
    "lng": 114.185,
    "population": 7206000
  },
  {
    "city": "Tianjin",
    "country": "China",
    "lat": 39.13,
    "lng": 117.2,
    "population": 7180000
  },
  {
    "city": "Chennai",
    "country": "India",
    "lat": 13.09,
    "lng": 80.28,
    "population": 7163000
  },
  {
    "city": "Taipei",
    "country": "Taiwan",
    "lat": 25.0358,
    "lng": 121.5683,
    "population": 6900273
  },
  {
    "city": "Bangalore",
    "country": "India",
    "lat": 12.97,
    "lng": 77.56,
    "population": 6787000
  },
  {
    "city": "Bangkok",
    "country": "Thailand",
    "lat": 13.75,
    "lng": 100.5166,
    "population": 6704000
  },
  {
    "city": "Lahore",
    "country": "Pakistan",
    "lat": 31.56,
    "lng": 74.35,
    "population": 6577000
  },
  {
    "city": "Chongqing",
    "country": "China",
    "lat": 29.565,
    "lng": 106.595,
    "population": 6461000
  },
  {
    "city": "Hyderabad",
    "country": "India",
    "lat": 17.4,
    "lng": 78.48,
    "population": 6376000
  },
  {
    "city": "Santiago",
    "country": "Chile",
    "lat": -33.45,
    "lng": -70.667,
    "population": 5720000
  },
  {
    "city": "Belo Horizonte",
    "country": "Brazil",
    "lat": -19.915,
    "lng": -43.915,
    "population": 5575000
  },
  {
    "city": "Madrid",
    "country": "Spain",
    "lat": 40.4,
    "lng": -3.6834,
    "population": 5567000
  },
  {
    "city": "Ahmedabad",
    "country": "India",
    "lat": 23.0301,
    "lng": 72.58,
    "population": 5375000
  },
  {
    "city": "Ho Chi Minh City",
    "country": "Vietnam",
    "lat": 10.78,
    "lng": 106.695,
    "population": 5314000
  },
  {
    "city": "Toronto",
    "country": "Canada",
    "lat": 43.7,
    "lng": -79.42,
    "population": 5213000
  },
  {
    "city": "Singapore",
    "country": "Singapore",
    "lat": 1.293,
    "lng": 103.8558,
    "population": 5183700
  },
  {
    "city": "Luanda",
    "country": "Angola",
    "lat": -8.8383,
    "lng": 13.2344,
    "population": 5172900
  },
  {
    "city": "Baghdad",
    "country": "Iraq",
    "lat": 33.3386,
    "lng": 44.3939,
    "population": 5054000
  },
  {
    "city": "Barcelona",
    "country": "Spain",
    "lat": 41.3833,
    "lng": 2.1834,
    "population": 4920000
  },
  {
    "city": "Haora",
    "country": "India",
    "lat": 22.5804,
    "lng": 88.3299,
    "population": 4841638
  },
  {
    "city": "Shenyeng",
    "country": "China",
    "lat": 41.805,
    "lng": 123.45,
    "population": 4787000
  },
  {
    "city": "Khartoum",
    "country": "Sudan",
    "lat": 15.5881,
    "lng": 32.5342,
    "population": 4754000
  },
  {
    "city": "Pune",
    "country": "India",
    "lat": 18.53,
    "lng": 73.85,
    "population": 4672000
  },
  {
    "city": "Sydney",
    "country": "Australia",
    "lat": -33.92,
    "lng": 151.1852,
    "population": 4630000
  },
  {
    "city": "St. Petersburg",
    "country": "Russia",
    "lat": 59.939,
    "lng": 30.316,
    "population": 4553000
  },
  {
    "city": "Chittagong",
    "country": "Bangladesh",
    "lat": 22.33,
    "lng": 91.8,
    "population": 4529000
  },
  {
    "city": "Dongguan",
    "country": "China",
    "lat": 23.0489,
    "lng": 113.7447,
    "population": 4528000
  },
  {
    "city": "Riyadh",
    "country": "Saudi Arabia",
    "lat": 24.6408,
    "lng": 46.7727,
    "population": 4465000
  },
  {
    "city": "Hanoi",
    "country": "Vietnam",
    "lat": 21.0333,
    "lng": 105.85,
    "population": 4378000
  },
  {
    "city": "Guadalajara",
    "country": "Mexico",
    "lat": 20.67,
    "lng": -103.33,
    "population": 4198000
  },
  {
    "city": "Melbourne",
    "country": "Australia",
    "lat": -37.82,
    "lng": 144.975,
    "population": 4170000
  },
  {
    "city": "Alexandria",
    "country": "Egypt",
    "lat": 31.2,
    "lng": 29.95,
    "population": 4165000
  },
  {
    "city": "Chengdu",
    "country": "China",
    "lat": 30.67,
    "lng": 104.07,
    "population": 4123000
  },
  {
    "city": "Rangoon",
    "country": "Burma",
    "lat": 16.7834,
    "lng": 96.1667,
    "population": 4088000
  },
  {
    "city": "Xian",
    "country": "China",
    "lat": 34.275,
    "lng": 108.895,
    "population": 4009000
  },
  {
    "city": "Porto Alegre",
    "country": "Brazil",
    "lat": -30.05,
    "lng": -51.2,
    "population": 3917000
  },
  {
    "city": "Surat",
    "country": "India",
    "lat": 21.2,
    "lng": 72.84,
    "population": 3842000
  },
  {
    "city": "Hechi",
    "country": "China",
    "lat": 23.0965,
    "lng": 109.6091,
    "population": 3830000
  },
  {
    "city": "Abidjan",
    "country": "C𴥠DӉvoire",
    "lat": 5.32,
    "lng": -4.04,
    "population": 3802000
  },
  {
    "city": "Brasilia",
    "country": "Brazil",
    "lat": -15.7833,
    "lng": -47.9161,
    "population": 3716996
  },
  {
    "city": "Ankara",
    "country": "Turkey",
    "lat": 39.9272,
    "lng": 32.8644,
    "population": 3716000
  },
  {
    "city": "Monterrey",
    "country": "Mexico",
    "lat": 25.67,
    "lng": -100.33,
    "population": 3712000
  },
  {
    "city": "Yokohama",
    "country": "Japan",
    "lat": 35.32,
    "lng": 139.58,
    "population": 3697894
  },
  {
    "city": "Nanjing",
    "country": "China",
    "lat": 32.05,
    "lng": 118.78,
    "population": 3679000
  },
  {
    "city": "Montreal",
    "country": "Canada",
    "lat": 45.5,
    "lng": -73.5833,
    "population": 3678000
  },
  {
    "city": "Guiyang",
    "country": "China",
    "lat": 26.58,
    "lng": 106.72,
    "population": 3662000
  },
  {
    "city": "Recife",
    "country": "Brazil",
    "lat": -8.0756,
    "lng": -34.9156,
    "population": 3651000
  },
  {
    "city": "Harbin",
    "country": "China",
    "lat": 45.75,
    "lng": 126.65,
    "population": 3621000
  },
  {
    "city": "Fortaleza",
    "country": "Brazil",
    "lat": -3.75,
    "lng": -38.58,
    "population": 3602319
  },
  {
    "city": "Zhangzhou",
    "country": "China",
    "lat": 24.5204,
    "lng": 117.67,
    "population": 3531147
  },
  {
    "city": "Salvador",
    "country": "Brazil",
    "lat": -12.97,
    "lng": -38.48,
    "population": 3484000
  },
  {
    "city": "Busan",
    "country": "Korea, South",
    "lat": 35.0951,
    "lng": 129.01,
    "population": 3480000
  },
  {
    "city": "Johannesburg",
    "country": "South Africa",
    "lat": -26.17,
    "lng": 28.03,
    "population": 3435000
  },
  {
    "city": "Berlin",
    "country": "Germany",
    "lat": 52.5218,
    "lng": 13.4015,
    "population": 3406000
  },
  {
    "city": "Algiers",
    "country": "Algeria",
    "lat": 36.7631,
    "lng": 3.0506,
    "population": 3354000
  },
  {
    "city": "Rome",
    "country": "Italy",
    "lat": 41.896,
    "lng": 12.4833,
    "population": 3339000
  },
  {
    "city": "Pyongyang",
    "country": "Korea, North",
    "lat": 39.0194,
    "lng": 125.7547,
    "population": 3300000
  },
  {
    "city": "Medellin",
    "country": "Colombia",
    "lat": 6.275,
    "lng": -75.575,
    "population": 3297000
  },
  {
    "city": "Kabul",
    "country": "Afghanistan",
    "lat": 34.5167,
    "lng": 69.1833,
    "population": 3277000
  },
  {
    "city": "Athens",
    "country": "Greece",
    "lat": 37.9833,
    "lng": 23.7333,
    "population": 3242000
  },
  {
    "city": "Nagoya",
    "country": "Japan",
    "lat": 35.155,
    "lng": 136.915,
    "population": 3230000
  },
  {
    "city": "Cape Town",
    "country": "South Africa",
    "lat": -33.92,
    "lng": 18.435,
    "population": 3215000
  },
  {
    "city": "Changchun",
    "country": "China",
    "lat": 43.865,
    "lng": 125.34,
    "population": 3183000
  },
  {
    "city": "Casablanca",
    "country": "Morocco",
    "lat": 33.6,
    "lng": -7.6164,
    "population": 3181000
  },
  {
    "city": "Dalian",
    "country": "China",
    "lat": 38.9228,
    "lng": 121.6298,
    "population": 3167000
  },
  {
    "city": "Kanpur",
    "country": "India",
    "lat": 26.46,
    "lng": 80.32,
    "population": 3162000
  },
  {
    "city": "Kano",
    "country": "Nigeria",
    "lat": 12,
    "lng": 8.52,
    "population": 3140000
  },
  {
    "city": "Tel Aviv-Yafo",
    "country": "Israel",
    "lat": 32.08,
    "lng": 34.77,
    "population": 3112000
  },
  {
    "city": "Addis Ababa",
    "country": "Ethiopia",
    "lat": 9.0333,
    "lng": 38.7,
    "population": 3100000
  },
  {
    "city": "Curitiba",
    "country": "Brazil",
    "lat": -25.42,
    "lng": -49.32,
    "population": 3084000
  },
  {
    "city": "Zibo",
    "country": "China",
    "lat": 36.8,
    "lng": 118.05,
    "population": 3061000
  },
  {
    "city": "Jeddah",
    "country": "Saudi Arabia",
    "lat": 21.5169,
    "lng": 39.2192,
    "population": 3012000
  },
  {
    "city": "Nairobi",
    "country": "Kenya",
    "lat": -1.2833,
    "lng": 36.8167,
    "population": 3010000
  },
  {
    "city": "Hangzhou",
    "country": "China",
    "lat": 30.25,
    "lng": 120.17,
    "population": 3007000
  },
  {
    "city": "Benoni",
    "country": "South Africa",
    "lat": -26.1496,
    "lng": 28.3299,
    "population": 2986000
  },
  {
    "city": "Caracas",
    "country": "Venezuela",
    "lat": 10.501,
    "lng": -66.917,
    "population": 2985000
  },
  {
    "city": "Milan",
    "country": "Italy",
    "lat": 45.47,
    "lng": 9.205,
    "population": 2945000
  },
  {
    "city": "Stuttgart",
    "country": "Germany",
    "lat": 48.78,
    "lng": 9.2,
    "population": 2944700
  },
  {
    "city": "Kunming",
    "country": "China",
    "lat": 25.07,
    "lng": 102.68,
    "population": 2931000
  },
  {
    "city": "Dar es Salaam",
    "country": "Tanzania",
    "lat": -6.8,
    "lng": 39.2683,
    "population": 2930000
  },
  {
    "city": "Jaipur",
    "country": "India",
    "lat": 26.9211,
    "lng": 75.81,
    "population": 2917000
  },
  {
    "city": "Taiyuan",
    "country": "China",
    "lat": 37.875,
    "lng": 112.5451,
    "population": 2913000
  },
  {
    "city": "Frankfurt",
    "country": "Germany",
    "lat": 50.1,
    "lng": 8.675,
    "population": 2895000
  },
  {
    "city": "Qingdao",
    "country": "China",
    "lat": 36.09,
    "lng": 120.33,
    "population": 2866000
  },
  {
    "city": "Surabaya",
    "country": "Indonesia",
    "lat": -7.2492,
    "lng": 112.7508,
    "population": 2845000
  },
  {
    "city": "Lisbon",
    "country": "Portugal",
    "lat": 38.7227,
    "lng": -9.1449,
    "population": 2812000
  },
  {
    "city": "Jinan",
    "country": "China",
    "lat": 36.675,
    "lng": 116.995,
    "population": 2798000
  },
  {
    "city": "Fukuoka",
    "country": "Japan",
    "lat": 33.595,
    "lng": 130.41,
    "population": 2792000
  },
  {
    "city": "Campinas",
    "country": "Brazil",
    "lat": -22.9,
    "lng": -47.1,
    "population": 2791000
  },
  {
    "city": "Kaohsiung",
    "country": "Taiwan",
    "lat": 22.6333,
    "lng": 120.2666,
    "population": 2769072
  },
  {
    "city": "Quezon City",
    "country": "Philippines",
    "lat": 14.6504,
    "lng": 121.03,
    "population": 2761720
  },
  {
    "city": "Katowice",
    "country": "Poland",
    "lat": 50.2604,
    "lng": 19.02,
    "population": 2746000
  },
  {
    "city": "Aleppo",
    "country": "Syria",
    "lat": 36.23,
    "lng": 37.17,
    "population": 2738000
  },
  {
    "city": "Durban",
    "country": "South Africa",
    "lat": -29.865,
    "lng": 30.98,
    "population": 2729000
  },
  {
    "city": "Kiev",
    "country": "Ukraine",
    "lat": 50.4334,
    "lng": 30.5166,
    "population": 2709000
  },
  {
    "city": "Lucknow",
    "country": "India",
    "lat": 26.855,
    "lng": 80.915,
    "population": 2695000
  },
  {
    "city": "El Giza",
    "country": "Egypt",
    "lat": 30.01,
    "lng": 31.19,
    "population": 2681863
  },
  {
    "city": "Zhengzhou",
    "country": "China",
    "lat": 34.755,
    "lng": 113.6651,
    "population": 2636000
  },
  {
    "city": "Taichung",
    "country": "Taiwan",
    "lat": 24.1521,
    "lng": 120.6817,
    "population": 2629323
  },
  {
    "city": "Ibadan",
    "country": "Nigeria",
    "lat": 7.38,
    "lng": 3.93,
    "population": 2628000
  },
  {
    "city": "Faisalabad",
    "country": "Pakistan",
    "lat": 31.41,
    "lng": 73.11,
    "population": 2617000
  },
  {
    "city": "Fuzhou",
    "country": "China",
    "lat": 26.08,
    "lng": 119.3,
    "population": 2606000
  },
  {
    "city": "Dakar",
    "country": "Senegal",
    "lat": 14.7158,
    "lng": -17.4731,
    "population": 2604000
  },
  {
    "city": "Changsha",
    "country": "China",
    "lat": 28.2,
    "lng": 112.97,
    "population": 2604000
  },
  {
    "city": "Izmir",
    "country": "Turkey",
    "lat": 38.4361,
    "lng": 27.1518,
    "population": 2587000
  },
  {
    "city": "Xiangtan",
    "country": "China",
    "lat": 27.8504,
    "lng": 112.9,
    "population": 2586948
  },
  {
    "city": "Lanzhou",
    "country": "China",
    "lat": 36.056,
    "lng": 103.792,
    "population": 2561000
  },
  {
    "city": "Incheon",
    "country": "Korea, South",
    "lat": 37.4761,
    "lng": 126.6422,
    "population": 2550000
  },
  {
    "city": "Sapporo",
    "country": "Japan",
    "lat": 43.075,
    "lng": 141.34,
    "population": 2544000
  },
  {
    "city": "Xiamen",
    "country": "China",
    "lat": 24.45,
    "lng": 118.08,
    "population": 2519000
  },
  {
    "city": "Guayaquil",
    "country": "Ecuador",
    "lat": -2.22,
    "lng": -79.92,
    "population": 2514000
  },
  {
    "city": "George Town",
    "country": "Malaysia",
    "lat": 5.4136,
    "lng": 100.3294,
    "population": 2500000
  },
  {
    "city": "Mashhad",
    "country": "Iran",
    "lat": 36.27,
    "lng": 59.57,
    "population": 2469000
  },
  {
    "city": "Damascus",
    "country": "Syria",
    "lat": 33.5,
    "lng": 36.3,
    "population": 2466000
  },
  {
    "city": "Daegu",
    "country": "Korea, South",
    "lat": 35.8668,
    "lng": 128.607,
    "population": 2460000
  },
  {
    "city": "Nagpur",
    "country": "India",
    "lat": 21.17,
    "lng": 79.09,
    "population": 2454000
  },
  {
    "city": "Jinxi",
    "country": "China",
    "lat": 40.7503,
    "lng": 120.83,
    "population": 2426000
  },
  {
    "city": "Shijianzhuang",
    "country": "China",
    "lat": 38.05,
    "lng": 114.48,
    "population": 2417000
  },
  {
    "city": "Tunis",
    "country": "Tunisia",
    "lat": 36.8028,
    "lng": 10.1797,
    "population": 2412500
  },
  {
    "city": "Vienna",
    "country": "Austria",
    "lat": 48.2,
    "lng": 16.3666,
    "population": 2400000
  },
  {
    "city": "Jilin",
    "country": "China",
    "lat": 43.85,
    "lng": 126.55,
    "population": 2396000
  },
  {
    "city": "Omdurman",
    "country": "Sudan",
    "lat": 15.6167,
    "lng": 32.48,
    "population": 2395159
  },
  {
    "city": "Bandung",
    "country": "Indonesia",
    "lat": -6.95,
    "lng": 107.57,
    "population": 2394000
  },
  {
    "city": "Bekasi",
    "country": "Indonesia",
    "lat": -6.2173,
    "lng": 106.9723,
    "population": 2378211
  },
  {
    "city": "Mannheim",
    "country": "Germany",
    "lat": 49.5004,
    "lng": 8.47,
    "population": 2362000
  },
  {
    "city": "Nanchang",
    "country": "China",
    "lat": 28.68,
    "lng": 115.88,
    "population": 2350000
  },
  {
    "city": "Wenzhou",
    "country": "China",
    "lat": 28.02,
    "lng": 120.6501,
    "population": 2350000
  },
  {
    "city": "Vancouver",
    "country": "Canada",
    "lat": 49.2734,
    "lng": -123.1216,
    "population": 2313328
  },
  {
    "city": "Birmingham",
    "country": "United Kingdom",
    "lat": 52.475,
    "lng": -1.92,
    "population": 2285000
  },
  {
    "city": "Cali",
    "country": "Colombia",
    "lat": 3.4,
    "lng": -76.5,
    "population": 2254000
  },
  {
    "city": "Naples",
    "country": "Italy",
    "lat": 40.84,
    "lng": 14.245,
    "population": 2250000
  },
  {
    "city": "Sendai",
    "country": "Japan",
    "lat": 38.2871,
    "lng": 141.0217,
    "population": 2250000
  },
  {
    "city": "Manchester",
    "country": "United Kingdom",
    "lat": 53.5004,
    "lng": -2.248,
    "population": 2230000
  },
  {
    "city": "Puebla",
    "country": "Mexico",
    "lat": 19.05,
    "lng": -98.2,
    "population": 2195000
  },
  {
    "city": "Tripoli",
    "country": "Libya",
    "lat": 32.8925,
    "lng": 13.18,
    "population": 2189000
  },
  {
    "city": "Tashkent",
    "country": "Uzbekistan",
    "lat": 41.3117,
    "lng": 69.2949,
    "population": 2184000
  },
  {
    "city": "Nanchong",
    "country": "China",
    "lat": 30.7804,
    "lng": 106.13,
    "population": 2174000
  },
  {
    "city": "Havana",
    "country": "Cuba",
    "lat": 23.132,
    "lng": -82.3642,
    "population": 2174000
  },
  {
    "city": "Belem",
    "country": "Brazil",
    "lat": -1.45,
    "lng": -48.48,
    "population": 2167000
  },
  {
    "city": "Nanning",
    "country": "China",
    "lat": 22.82,
    "lng": 108.32,
    "population": 2167000
  },
  {
    "city": "Patna",
    "country": "India",
    "lat": 25.625,
    "lng": 85.13,
    "population": 2158000
  },
  {
    "city": "Santo Domingo",
    "country": "Dominican Republic",
    "lat": 18.4701,
    "lng": -69.9001,
    "population": 2154000
  },
  {
    "city": "Urumqi",
    "country": "China",
    "lat": 43.805,
    "lng": 87.575,
    "population": 2151000
  },
  {
    "city": "Zaozhuang",
    "country": "China",
    "lat": 34.88,
    "lng": 117.57,
    "population": 2145000
  },
  {
    "city": "Baku",
    "country": "Azerbaijan",
    "lat": 40.3953,
    "lng": 49.8622,
    "population": 2122300
  },
  {
    "city": "Accra",
    "country": "Ghana",
    "lat": 5.55,
    "lng": -0.2167,
    "population": 2121000
  },
  {
    "city": "Yantai",
    "country": "China",
    "lat": 37.5304,
    "lng": 121.4,
    "population": 2116000
  },
  {
    "city": "Medan",
    "country": "Indonesia",
    "lat": 3.58,
    "lng": 98.65,
    "population": 2115000
  },
  {
    "city": "Santa Cruz",
    "country": "Bolivia",
    "lat": -17.7539,
    "lng": -63.226,
    "population": 2102998
  },
  {
    "city": "Xuzhou",
    "country": "China",
    "lat": 34.28,
    "lng": 117.18,
    "population": 2091000
  },
  {
    "city": "Linyi",
    "country": "China",
    "lat": 35.08,
    "lng": 118.33,
    "population": 2082000
  },
  {
    "city": "Maracaibo",
    "country": "Venezuela",
    "lat": 10.73,
    "lng": -71.66,
    "population": 2072000
  },
  {
    "city": "Kuwait",
    "country": "Kuwait",
    "lat": 29.3697,
    "lng": 47.9783,
    "population": 2063000
  },
  {
    "city": "Ad Damman",
    "country": "Saudi Arabia",
    "lat": 26.4282,
    "lng": 50.0997,
    "population": 2054710
  },
  {
    "city": "Haikou",
    "country": "China",
    "lat": 20.05,
    "lng": 110.32,
    "population": 2046189
  },
  {
    "city": "Hiroshima",
    "country": "Japan",
    "lat": 34.3878,
    "lng": 132.4429,
    "population": 2045000
  },
  {
    "city": "Baotou",
    "country": "China",
    "lat": 40.6522,
    "lng": 109.822,
    "population": 2036000
  },
  {
    "city": "Hefei",
    "country": "China",
    "lat": 31.85,
    "lng": 117.28,
    "population": 2035000
  },
  {
    "city": "Indore",
    "country": "India",
    "lat": 22.7151,
    "lng": 75.865,
    "population": 2026000
  },
  {
    "city": "Goiania",
    "country": "Brazil",
    "lat": -16.72,
    "lng": -49.3,
    "population": 2022000
  },
  {
    "city": "Sanaa",
    "country": "Yemen",
    "lat": 15.3547,
    "lng": 44.2066,
    "population": 2008000
  },
  {
    "city": "Port-au-Prince",
    "country": "Haiti",
    "lat": 18.541,
    "lng": -72.336,
    "population": 1998000
  },
  {
    "city": "Haiphong",
    "country": "Vietnam",
    "lat": 20.83,
    "lng": 106.6801,
    "population": 1969000
  },
  {
    "city": "Suzhou",
    "country": "China",
    "lat": 33.6361,
    "lng": 116.9789,
    "population": 1964000
  },
  {
    "city": "Nanyang",
    "country": "China",
    "lat": 33.0004,
    "lng": 112.53,
    "population": 1944000
  },
  {
    "city": "Bucharest",
    "country": "Romania",
    "lat": 44.4334,
    "lng": 26.0999,
    "population": 1942000
  },
  {
    "city": "Ningbo",
    "country": "China",
    "lat": 29.88,
    "lng": 121.55,
    "population": 1923000
  },
  {
    "city": "Douala",
    "country": "Cameroon",
    "lat": 4.0604,
    "lng": 9.71,
    "population": 1906000
  },
  {
    "city": "Tangshan",
    "country": "China",
    "lat": 39.6243,
    "lng": 118.1944,
    "population": 1879000
  },
  {
    "city": "Tainan",
    "country": "Taiwan",
    "lat": 23,
    "lng": 120.2,
    "population": 1876312
  },
  {
    "city": "Datong",
    "country": "China",
    "lat": 40.08,
    "lng": 113.3,
    "population": 1873000
  },
  {
    "city": "Asuncion",
    "country": "Paraguay",
    "lat": -25.2964,
    "lng": -57.6415,
    "population": 1870000
  },
  {
    "city": "Saidu",
    "country": "Pakistan",
    "lat": 34.75,
    "lng": 72.35,
    "population": 1860310
  },
  {
    "city": "Brisbane",
    "country": "Australia",
    "lat": -27.455,
    "lng": 153.0351,
    "population": 1860000
  },
  {
    "city": "Rawalpindi",
    "country": "Pakistan",
    "lat": 33.6,
    "lng": 73.04,
    "population": 1858000
  },
  {
    "city": "Beirut",
    "country": "Lebanon",
    "lat": 33.872,
    "lng": 35.5097,
    "population": 1846000
  },
  {
    "city": "Minsk",
    "country": "Belarus",
    "lat": 53.9,
    "lng": 27.5666,
    "population": 1805000
  },
  {
    "city": "Kyoto",
    "country": "Japan",
    "lat": 35.03,
    "lng": 135.75,
    "population": 1805000
  },
  {
    "city": "Barranquilla",
    "country": "Colombia",
    "lat": 10.96,
    "lng": -74.8,
    "population": 1798000
  },
  {
    "city": "Valencia",
    "country": "Venezuela",
    "lat": 10.23,
    "lng": -67.98,
    "population": 1770000
  },
  {
    "city": "Shuyang",
    "country": "China",
    "lat": 34.1299,
    "lng": 118.7734,
    "population": 1770000
  },
  {
    "city": "Hamburg",
    "country": "Germany",
    "lat": 53.55,
    "lng": 10,
    "population": 1757000
  },
  {
    "city": "Vadodara",
    "country": "India",
    "lat": 22.31,
    "lng": 73.18,
    "population": 1756000
  },
  {
    "city": "Manaus",
    "country": "Brazil",
    "lat": -3.1,
    "lng": -60,
    "population": 1753000
  },
  {
    "city": "Shangqiu",
    "country": "China",
    "lat": 34.4504,
    "lng": 115.65,
    "population": 1753000
  },
  {
    "city": "Wuxi",
    "country": "China",
    "lat": 31.58,
    "lng": 120.3,
    "population": 1749000
  },
  {
    "city": "Palembang",
    "country": "Indonesia",
    "lat": -2.98,
    "lng": 104.75,
    "population": 1749000
  },
  {
    "city": "Brussels",
    "country": "Belgium",
    "lat": 50.8333,
    "lng": 4.3333,
    "population": 1743000
  },
  {
    "city": "Essen",
    "country": "Germany",
    "lat": 51.45,
    "lng": 7.0166,
    "population": 1742135
  },
  {
    "city": "Bhopal",
    "country": "India",
    "lat": 23.25,
    "lng": 77.41,
    "population": 1727000
  },
  {
    "city": "Hohhot",
    "country": "China",
    "lat": 40.82,
    "lng": 111.66,
    "population": 1726000
  },
  {
    "city": "Luoyang",
    "country": "China",
    "lat": 34.68,
    "lng": 112.4701,
    "population": 1715000
  },
  {
    "city": "Santos",
    "country": "Brazil",
    "lat": -23.9537,
    "lng": -46.3329,
    "population": 1709000
  },
  {
    "city": "Jianmen",
    "country": "China",
    "lat": 30.6501,
    "lng": 113.16,
    "population": 1708000
  },
  {
    "city": "Warsaw",
    "country": "Poland",
    "lat": 52.25,
    "lng": 21,
    "population": 1707000
  },
  {
    "city": "Rabat",
    "country": "Morocco",
    "lat": 34.0253,
    "lng": -6.8361,
    "population": 1705000
  },
  {
    "city": "Vitoria",
    "country": "Brazil",
    "lat": -20.324,
    "lng": -40.366,
    "population": 1704000
  },
  {
    "city": "Quito",
    "country": "Ecuador",
    "lat": -0.215,
    "lng": -78.5001,
    "population": 1701000
  },
  {
    "city": "Antananarivo",
    "country": "Madagascar",
    "lat": -18.9166,
    "lng": 47.5166,
    "population": 1697000
  },
  {
    "city": "Coimbatore",
    "country": "India",
    "lat": 11,
    "lng": 76.95,
    "population": 1696000
  },
  {
    "city": "Daqing",
    "country": "China",
    "lat": 46.58,
    "lng": 125,
    "population": 1693000
  },
  {
    "city": "Luan",
    "country": "China",
    "lat": 31.7503,
    "lng": 116.48,
    "population": 1690000
  },
  {
    "city": "Wanzhou",
    "country": "China",
    "lat": 30.82,
    "lng": 108.4,
    "population": 1680000
  },
  {
    "city": "Budapest",
    "country": "Hungary",
    "lat": 47.5,
    "lng": 19.0833,
    "population": 1679000
  },
  {
    "city": "Turin",
    "country": "Italy",
    "lat": 45.0704,
    "lng": 7.67,
    "population": 1652000
  },
  {
    "city": "Suzhou",
    "country": "China",
    "lat": 31.3005,
    "lng": 120.62,
    "population": 1650000
  },
  {
    "city": "Ludhiana",
    "country": "India",
    "lat": 30.9278,
    "lng": 75.8723,
    "population": 1649000
  },
  {
    "city": "Kumasi",
    "country": "Ghana",
    "lat": 6.69,
    "lng": -1.63,
    "population": 1646000
  },
  {
    "city": "Qiqihar",
    "country": "China",
    "lat": 47.345,
    "lng": 123.99,
    "population": 1641000
  },
  {
    "city": "Anshan",
    "country": "China",
    "lat": 41.115,
    "lng": 122.94,
    "population": 1639000
  },
  {
    "city": "Zhongli",
    "country": "Taiwan",
    "lat": 24.965,
    "lng": 121.2168,
    "population": 1632616
  },
  {
    "city": "Handan",
    "country": "China",
    "lat": 36.58,
    "lng": 114.48,
    "population": 1631000
  },
  {
    "city": "Taian",
    "country": "China",
    "lat": 36.2,
    "lng": 117.1201,
    "population": 1629000
  },
  {
    "city": "Isfahan",
    "country": "Iran",
    "lat": 32.7,
    "lng": 51.7,
    "population": 1628000
  },
  {
    "city": "Yaounde",
    "country": "Cameroon",
    "lat": 3.8667,
    "lng": 11.5167,
    "population": 1611000
  },
  {
    "city": "Shantou",
    "country": "China",
    "lat": 23.37,
    "lng": 116.67,
    "population": 1601000
  },
  {
    "city": "Agra",
    "country": "India",
    "lat": 27.1704,
    "lng": 78.015,
    "population": 1592000
  },
  {
    "city": "La Paz",
    "country": "Bolivia",
    "lat": -16.498,
    "lng": -68.15,
    "population": 1590000
  },
  {
    "city": "Zhanjiang",
    "country": "China",
    "lat": 21.2,
    "lng": 110.38,
    "population": 1590000
  },
  {
    "city": "Kalyan",
    "country": "India",
    "lat": 19.2502,
    "lng": 73.1602,
    "population": 1576614
  },
  {
    "city": "Abuja",
    "country": "Nigeria",
    "lat": 9.0833,
    "lng": 7.5333,
    "population": 1576000
  },
  {
    "city": "Harare",
    "country": "Zimbabwe",
    "lat": -17.8178,
    "lng": 31.0447,
    "population": 1572000
  },
  {
    "city": "Xiantao",
    "country": "China",
    "lat": 30.3704,
    "lng": 113.44,
    "population": 1556000
  },
  {
    "city": "Tijuana",
    "country": "Mexico",
    "lat": 32.5,
    "lng": -117.08,
    "population": 1553000
  },
  {
    "city": "Khulna",
    "country": "Bangladesh",
    "lat": 22.84,
    "lng": 89.56,
    "population": 1553000
  },
  {
    "city": "Weifang",
    "country": "China",
    "lat": 36.7204,
    "lng": 119.1001,
    "population": 1553000
  },
  {
    "city": "Santiago",
    "country": "Dominican Republic",
    "lat": 19.5,
    "lng": -70.67,
    "population": 1550753
  },
  {
    "city": "Xinyang",
    "country": "China",
    "lat": 32.1304,
    "lng": 114.07,
    "population": 1541000
  },
  {
    "city": "Luzhou",
    "country": "China",
    "lat": 28.88,
    "lng": 105.38,
    "population": 1537000
  },
  {
    "city": "Perth",
    "country": "Australia",
    "lat": -31.955,
    "lng": 115.84,
    "population": 1532000
  },
  {
    "city": "Toluca",
    "country": "Mexico",
    "lat": 19.3304,
    "lng": -99.67,
    "population": 1531000
  },
  {
    "city": "Leeds",
    "country": "United Kingdom",
    "lat": 53.83,
    "lng": -1.58,
    "population": 1529000
  },
  {
    "city": "Vishakhapatnam",
    "country": "India",
    "lat": 17.73,
    "lng": 83.305,
    "population": 1529000
  },
  {
    "city": "Kobe",
    "country": "Japan",
    "lat": 34.68,
    "lng": 135.17,
    "population": 1528478
  },
  {
    "city": "Multan",
    "country": "Pakistan",
    "lat": 30.2,
    "lng": 71.455,
    "population": 1522000
  },
  {
    "city": "Kochi",
    "country": "India",
    "lat": 10.015,
    "lng": 76.2239,
    "population": 1519000
  },
  {
    "city": "Gujranwala",
    "country": "Pakistan",
    "lat": 32.1604,
    "lng": 74.185,
    "population": 1513000
  },
  {
    "city": "Montevideo",
    "country": "Uruguay",
    "lat": -34.858,
    "lng": -56.1711,
    "population": 1513000
  },
  {
    "city": "Niteroi",
    "country": "Brazil",
    "lat": -22.9,
    "lng": -43.1,
    "population": 1500513
  },
  {
    "city": "Ganzhou",
    "country": "China",
    "lat": 25.92,
    "lng": 114.95,
    "population": 1500000
  },
  {
    "city": "Florence",
    "country": "Italy",
    "lat": 43.78,
    "lng": 11.25,
    "population": 1500000
  },
  {
    "city": "Liuzhou",
    "country": "China",
    "lat": 24.28,
    "lng": 109.25,
    "population": 1497000
  },
  {
    "city": "Bamako",
    "country": "Mali",
    "lat": 12.65,
    "lng": -8,
    "population": 1494000
  },
  {
    "city": "Conakry",
    "country": "Guinea",
    "lat": 9.5315,
    "lng": -13.6802,
    "population": 1494000
  },
  {
    "city": "Bursa",
    "country": "Turkey",
    "lat": 40.2,
    "lng": 29.07,
    "population": 1492000
  },
  {
    "city": "Leon",
    "country": "Mexico",
    "lat": 21.15,
    "lng": -101.7,
    "population": 1488000
  },
  {
    "city": "Nasik",
    "country": "India",
    "lat": 20.0004,
    "lng": 73.78,
    "population": 1473000
  },
  {
    "city": "Fushun",
    "country": "China",
    "lat": 41.8654,
    "lng": 123.87,
    "population": 1470000
  },
  {
    "city": "Changde",
    "country": "China",
    "lat": 29.03,
    "lng": 111.68,
    "population": 1469000
  },
  {
    "city": "Daejeon",
    "country": "Korea, South",
    "lat": 36.3355,
    "lng": 127.425,
    "population": 1468000
  },
  {
    "city": "Neijiang",
    "country": "China",
    "lat": 29.5804,
    "lng": 105.05,
    "population": 1466000
  },
  {
    "city": "Phnom Penh",
    "country": "Cambodia",
    "lat": 11.55,
    "lng": 104.9166,
    "population": 1466000
  },
  {
    "city": "Quanzhou",
    "country": "China",
    "lat": 24.9,
    "lng": 118.58,
    "population": 1463000
  },
  {
    "city": "Kharkiv",
    "country": "Ukraine",
    "lat": 50,
    "lng": 36.25,
    "population": 1461000
  },
  {
    "city": "Hyderabad",
    "country": "Pakistan",
    "lat": 25.38,
    "lng": 68.375,
    "population": 1459000
  },
  {
    "city": "Lome",
    "country": "Togo",
    "lat": 6.1319,
    "lng": 1.2228,
    "population": 1452000
  },
  {
    "city": "Cordoba",
    "country": "Argentina",
    "lat": -31.4,
    "lng": -64.1823,
    "population": 1452000
  },
  {
    "city": "Huainan",
    "country": "China",
    "lat": 32.63,
    "lng": 116.98,
    "population": 1451000
  },
  {
    "city": "Doha",
    "country": "Qatar",
    "lat": 25.2866,
    "lng": 51.533,
    "population": 1450000
  },
  {
    "city": "Kuala Lumpur",
    "country": "Malaysia",
    "lat": 3.1667,
    "lng": 101.7,
    "population": 1448000
  },
  {
    "city": "Maputo",
    "country": "Mozambique",
    "lat": -25.9553,
    "lng": 32.5892,
    "population": 1446000
  },
  {
    "city": "Kaduna",
    "country": "Nigeria",
    "lat": 10.52,
    "lng": 7.44,
    "population": 1442000
  },
  {
    "city": "Gwangju",
    "country": "Korea, South",
    "lat": 35.171,
    "lng": 126.9104,
    "population": 1440000
  },
  {
    "city": "Kawasaki",
    "country": "Japan",
    "lat": 35.53,
    "lng": 139.705,
    "population": 1437266
  },
  {
    "city": "San Salvador",
    "country": "El Salvador",
    "lat": 13.71,
    "lng": -89.203,
    "population": 1433000
  },
  {
    "city": "Suining",
    "country": "China",
    "lat": 30.5333,
    "lng": 105.5333,
    "population": 1425000
  },
  {
    "city": "Lyon",
    "country": "France",
    "lat": 45.77,
    "lng": 4.83,
    "population": 1423000
  },
  {
    "city": "Karaj",
    "country": "Iran",
    "lat": 35.8004,
    "lng": 50.97,
    "population": 1423000
  },
  {
    "city": "Kampala",
    "country": "Uganda",
    "lat": 0.3167,
    "lng": 32.5833,
    "population": 1420000
  },
  {
    "city": "Tabriz",
    "country": "Iran",
    "lat": 38.0863,
    "lng": 46.3012,
    "population": 1413000
  },
  {
    "city": "The Hague",
    "country": "Netherlands",
    "lat": 52.08,
    "lng": 4.27,
    "population": 1406000
  },
  {
    "city": "Davao",
    "country": "Philippines",
    "lat": 7.11,
    "lng": 125.63,
    "population": 1402000
  },
  {
    "city": "Marseille",
    "country": "France",
    "lat": 43.29,
    "lng": 5.375,
    "population": 1400000
  },
  {
    "city": "Meerut",
    "country": "India",
    "lat": 29.0004,
    "lng": 77.7,
    "population": 1398000
  },
  {
    "city": "Mianyang",
    "country": "China",
    "lat": 31.47,
    "lng": 104.77,
    "population": 1396000
  },
  {
    "city": "Semarang",
    "country": "Indonesia",
    "lat": -6.9666,
    "lng": 110.42,
    "population": 1396000
  },
  {
    "city": "Faridabad",
    "country": "India",
    "lat": 28.4333,
    "lng": 77.3167,
    "population": 1394000
  },
  {
    "city": "Novosibirsk",
    "country": "Russia",
    "lat": 55.03,
    "lng": 82.96,
    "population": 1389000
  },
  {
    "city": "Makkah",
    "country": "Saudi Arabia",
    "lat": 21.43,
    "lng": 39.82,
    "population": 1385000
  },
  {
    "city": "Dubai",
    "country": "United Arab Emirates",
    "lat": 25.23,
    "lng": 55.28,
    "population": 1379000
  },
  {
    "city": "Auckland",
    "country": "New Zealand",
    "lat": -36.8481,
    "lng": 174.763,
    "population": 1377200
  },
  {
    "city": "Maanshan",
    "country": "China",
    "lat": 31.7304,
    "lng": 118.48,
    "population": 1366302
  },
  {
    "city": "Brazzaville",
    "country": "Congo (Brazzaville)",
    "lat": -4.2592,
    "lng": 15.2847,
    "population": 1355000
  },
  {
    "city": "Lubumbashi",
    "country": "Congo (Kinshasa)",
    "lat": -11.68,
    "lng": 27.48,
    "population": 1352000
  },
  {
    "city": "Yiyang",
    "country": "China",
    "lat": 28.6004,
    "lng": 112.33,
    "population": 1352000
  },
  {
    "city": "Varanasi",
    "country": "India",
    "lat": 25.33,
    "lng": 83,
    "population": 1352000
  },
  {
    "city": "Ciudad Juarez",
    "country": "Mexico",
    "lat": 31.6904,
    "lng": -106.49,
    "population": 1343000
  },
  {
    "city": "Ghaziabad",
    "country": "India",
    "lat": 28.6604,
    "lng": 77.4084,
    "population": 1341000
  },
  {
    "city": "Pretoria",
    "country": "South Africa",
    "lat": -25.7069,
    "lng": 28.2294,
    "population": 1338000
  },
  {
    "city": "Heze",
    "country": "China",
    "lat": 35.23,
    "lng": 115.45,
    "population": 1338000
  },
  {
    "city": "Porto",
    "country": "Portugal",
    "lat": 41.15,
    "lng": -8.62,
    "population": 1337000
  },
  {
    "city": "Lusaka",
    "country": "Zambia",
    "lat": -15.4166,
    "lng": 28.2833,
    "population": 1328000
  },
  {
    "city": "Asansol",
    "country": "India",
    "lat": 23.6833,
    "lng": 86.9833,
    "population": 1328000
  },
  {
    "city": "Changzhou",
    "country": "China",
    "lat": 31.78,
    "lng": 119.97,
    "population": 1327000
  },
  {
    "city": "Mosul",
    "country": "Iraq",
    "lat": 36.345,
    "lng": 43.145,
    "population": 1316000
  },
  {
    "city": "Yekaterinburg",
    "country": "Russia",
    "lat": 56.85,
    "lng": 60.6,
    "population": 1313000
  },
  {
    "city": "Peshawar",
    "country": "Pakistan",
    "lat": 34.005,
    "lng": 71.535,
    "population": 1303000
  },
  {
    "city": "Mandalay",
    "country": "Burma",
    "lat": 21.97,
    "lng": 96.085,
    "population": 1300000
  },
  {
    "city": "Jamshedpur",
    "country": "India",
    "lat": 22.7875,
    "lng": 86.1975,
    "population": 1300000
  },
  {
    "city": "Mbuji-Mayi",
    "country": "Congo (Kinshasa)",
    "lat": -6.15,
    "lng": 23.6,
    "population": 1295000
  },
  {
    "city": "Madurai",
    "country": "India",
    "lat": 9.92,
    "lng": 78.12,
    "population": 1294000
  },
  {
    "city": "Adana",
    "country": "Turkey",
    "lat": 36.995,
    "lng": 35.32,
    "population": 1293000
  },
  {
    "city": "Sheffield",
    "country": "United Kingdom",
    "lat": 53.3667,
    "lng": -1.5,
    "population": 1292900
  },
  {
    "city": "Jabalpur",
    "country": "India",
    "lat": 23.1751,
    "lng": 79.9551,
    "population": 1285000
  },
  {
    "city": "San Jose",
    "country": "Costa Rica",
    "lat": 9.935,
    "lng": -84.0841,
    "population": 1284000
  },
  {
    "city": "Panama City",
    "country": "Panama",
    "lat": 8.968,
    "lng": -79.533,
    "population": 1281000
  },
  {
    "city": "Nizhny Novgorod",
    "country": "Russia",
    "lat": 56.333,
    "lng": 44.0001,
    "population": 1278000
  },
  {
    "city": "Chifeng",
    "country": "China",
    "lat": 42.27,
    "lng": 118.95,
    "population": 1277000
  },
  {
    "city": "Duisburg",
    "country": "Germany",
    "lat": 51.43,
    "lng": 6.75,
    "population": 1276757
  },
  {
    "city": "Munich",
    "country": "Germany",
    "lat": 48.1299,
    "lng": 11.575,
    "population": 1275000
  },
  {
    "city": "Stockholm",
    "country": "Sweden",
    "lat": 59.3508,
    "lng": 18.0973,
    "population": 1264000
  },
  {
    "city": "Huaiyin",
    "country": "China",
    "lat": 33.58,
    "lng": 119.03,
    "population": 1264000
  },
  {
    "city": "Ujungpandang",
    "country": "Indonesia",
    "lat": -5.14,
    "lng": 119.432,
    "population": 1262000
  },
  {
    "city": "Rajkot",
    "country": "India",
    "lat": 22.31,
    "lng": 70.8,
    "population": 1260000
  },
  {
    "city": "Dhanbad",
    "country": "India",
    "lat": 23.8004,
    "lng": 86.42,
    "population": 1246000
  },
  {
    "city": "Mudangiang",
    "country": "China",
    "lat": 44.575,
    "lng": 129.59,
    "population": 1244000
  },
  {
    "city": "Geneva",
    "country": "Switzerland",
    "lat": 46.21,
    "lng": 6.14,
    "population": 1240000
  },
  {
    "city": "Shiraz",
    "country": "Iran",
    "lat": 29.63,
    "lng": 52.57,
    "population": 1240000
  },
  {
    "city": "Huzhou",
    "country": "China",
    "lat": 30.8704,
    "lng": 120.1,
    "population": 1231000
  },
  {
    "city": "Tianshui",
    "country": "China",
    "lat": 34.6,
    "lng": 105.92,
    "population": 1225000
  },
  {
    "city": "Lupanshui",
    "country": "China",
    "lat": 26.5944,
    "lng": 104.8333,
    "population": 1221000
  },
  {
    "city": "Dusseldorf",
    "country": "Germany",
    "lat": 51.2204,
    "lng": 6.78,
    "population": 1220000
  },
  {
    "city": "Maoming",
    "country": "China",
    "lat": 21.9204,
    "lng": 110.87,
    "population": 1217715
  },
  {
    "city": "Seville",
    "country": "Spain",
    "lat": 37.405,
    "lng": -5.98,
    "population": 1212045
  },
  {
    "city": "Amritsar",
    "country": "India",
    "lat": 31.64,
    "lng": 74.87,
    "population": 1212000
  },
  {
    "city": "Vila Velha",
    "country": "Brazil",
    "lat": -20.3676,
    "lng": -40.318,
    "population": 1209091
  },
  {
    "city": "Vila Velha",
    "country": "Brazil",
    "lat": 3.2167,
    "lng": -51.2167,
    "population": 1209091
  },
  {
    "city": "Almaty",
    "country": "Kazakhstan",
    "lat": 43.325,
    "lng": 76.915,
    "population": 1209000
  },
  {
    "city": "Warangal",
    "country": "India",
    "lat": 18.01,
    "lng": 79.58,
    "population": 1203853
  },
  {
    "city": "Rosario",
    "country": "Argentina",
    "lat": -32.9511,
    "lng": -60.6663,
    "population": 1203000
  },
  {
    "city": "Allahabad",
    "country": "India",
    "lat": 25.455,
    "lng": 81.84,
    "population": 1201000
  },
  {
    "city": "Benin City",
    "country": "Nigeria",
    "lat": 6.3405,
    "lng": 5.62,
    "population": 1190000
  },
  {
    "city": "Maceio",
    "country": "Brazil",
    "lat": -9.62,
    "lng": -35.73,
    "population": 1186000
  },
  {
    "city": "Jining",
    "country": "China",
    "lat": 35.4004,
    "lng": 116.55,
    "population": 1186000
  },
  {
    "city": "Sofia",
    "country": "Bulgaria",
    "lat": 42.6833,
    "lng": 23.3167,
    "population": 1185000
  },
  {
    "city": "Abbottabad",
    "country": "Pakistan",
    "lat": 34.1495,
    "lng": 73.1995,
    "population": 1183647
  },
  {
    "city": "Banghazi",
    "country": "Libya",
    "lat": 32.1167,
    "lng": 20.0667,
    "population": 1180000
  },
  {
    "city": "Cilacap",
    "country": "Indonesia",
    "lat": -7.7188,
    "lng": 109.0154,
    "population": 1174964
  },
  {
    "city": "Prague",
    "country": "Czechia",
    "lat": 50.0833,
    "lng": 14.466,
    "population": 1162000
  },
  {
    "city": "Glasgow",
    "country": "United Kingdom",
    "lat": 55.8744,
    "lng": -4.2507,
    "population": 1160000
  },
  {
    "city": "Leshan",
    "country": "China",
    "lat": 29.5671,
    "lng": 103.7333,
    "population": 1157000
  },
  {
    "city": "Ouagadougou",
    "country": "Burkina Faso",
    "lat": 12.3703,
    "lng": -1.5247,
    "population": 1149000
  },
  {
    "city": "Adelaide",
    "country": "Australia",
    "lat": -34.935,
    "lng": 138.6,
    "population": 1145000
  },
  {
    "city": "Ottawa",
    "country": "Canada",
    "lat": 45.4167,
    "lng": -75.7,
    "population": 1145000
  },
  {
    "city": "Shangrao",
    "country": "China",
    "lat": 28.4704,
    "lng": 117.97,
    "population": 1144577
  },
  {
    "city": "Torreon",
    "country": "Mexico",
    "lat": 25.5701,
    "lng": -103.42,
    "population": 1144000
  },
  {
    "city": "Srinagar",
    "country": "India",
    "lat": 34.1,
    "lng": 74.815,
    "population": 1140000
  },
  {
    "city": "Samara",
    "country": "Russia",
    "lat": 53.195,
    "lng": 50.1513,
    "population": 1137000
  },
  {
    "city": "Vijayawada",
    "country": "India",
    "lat": 16.52,
    "lng": 80.63,
    "population": 1137000
  },
  {
    "city": "Omsk",
    "country": "Russia",
    "lat": 54.99,
    "lng": 73.4,
    "population": 1135000
  },
  {
    "city": "Newcastle",
    "country": "Australia",
    "lat": -32.8453,
    "lng": 151.815,
    "population": 1134616
  },
  {
    "city": "Yulin",
    "country": "China",
    "lat": 22.63,
    "lng": 110.15,
    "population": 1127000
  },
  {
    "city": "Nampo",
    "country": "Korea, North",
    "lat": 38.7669,
    "lng": 125.4524,
    "population": 1127000
  },
  {
    "city": "Xianyang",
    "country": "China",
    "lat": 34.3456,
    "lng": 108.7147,
    "population": 1126000
  },
  {
    "city": "Cagayan de Oro",
    "country": "Philippines",
    "lat": 8.4508,
    "lng": 124.6853,
    "population": 1121561
  },
  {
    "city": "Can Tho",
    "country": "Vietnam",
    "lat": 10.05,
    "lng": 105.77,
    "population": 1121000
  },
  {
    "city": "Barquisimeto",
    "country": "Venezuela",
    "lat": 10.05,
    "lng": -69.3,
    "population": 1116000
  },
  {
    "city": "Kazan",
    "country": "Russia",
    "lat": 55.7499,
    "lng": 49.1263,
    "population": 1115000
  },
  {
    "city": "Helsinki",
    "country": "Finland",
    "lat": 60.1756,
    "lng": 24.9341,
    "population": 1115000
  },
  {
    "city": "Aurangabad",
    "country": "India",
    "lat": 19.8957,
    "lng": 75.3203,
    "population": 1113000
  },
  {
    "city": "Calgary",
    "country": "Canada",
    "lat": 51.083,
    "lng": -114.08,
    "population": 1110000
  },
  {
    "city": "Nezahualcoyotl",
    "country": "Mexico",
    "lat": 19.41,
    "lng": -99.03,
    "population": 1109363
  },
  {
    "city": "Zurich",
    "country": "Switzerland",
    "lat": 47.38,
    "lng": 8.55,
    "population": 1108000
  },
  {
    "city": "Baoding",
    "country": "China",
    "lat": 38.8704,
    "lng": 115.48,
    "population": 1107000
  },
  {
    "city": "Zigong",
    "country": "China",
    "lat": 29.4,
    "lng": 104.78,
    "population": 1105000
  },
  {
    "city": "Sharjah",
    "country": "United Arab Emirates",
    "lat": 25.3714,
    "lng": 55.4065,
    "population": 1103027
  },
  {
    "city": "Yerevan",
    "country": "Armenia",
    "lat": 40.1812,
    "lng": 44.5136,
    "population": 1102000
  },
  {
    "city": "Mogadishu",
    "country": "Somalia",
    "lat": 2.0667,
    "lng": 45.3667,
    "population": 1100000
  },
  {
    "city": "Huambo",
    "country": "Angola",
    "lat": -12.75,
    "lng": 15.76,
    "population": 1100000
  },
  {
    "city": "Ankang",
    "country": "China",
    "lat": 32.68,
    "lng": 109.02,
    "population": 1100000
  },
  {
    "city": "Tbilisi",
    "country": "Georgia",
    "lat": 41.725,
    "lng": 44.7908,
    "population": 1100000
  },
  {
    "city": "Ikare",
    "country": "Nigeria",
    "lat": 7.5304,
    "lng": 5.76,
    "population": 1099931
  },
  {
    "city": "Belgrade",
    "country": "Serbia",
    "lat": 44.8186,
    "lng": 20.468,
    "population": 1099000
  },
  {
    "city": "Bhilai",
    "country": "India",
    "lat": 21.2167,
    "lng": 81.4333,
    "population": 1097000
  },
  {
    "city": "Jinhua",
    "country": "China",
    "lat": 29.12,
    "lng": 119.65,
    "population": 1092852
  },
  {
    "city": "Chelyabinsk",
    "country": "Russia",
    "lat": 55.155,
    "lng": 61.4387,
    "population": 1091000
  },
  {
    "city": "Natal",
    "country": "Brazil",
    "lat": -5.78,
    "lng": -35.24,
    "population": 1088000
  },
  {
    "city": "Dushanbe",
    "country": "Tajikistan",
    "lat": 38.56,
    "lng": 68.7739,
    "population": 1086244
  },
  {
    "city": "Kobenhavn",
    "country": "Denmark",
    "lat": 55.6786,
    "lng": 12.5635,
    "population": 1085000
  },
  {
    "city": "Changwon",
    "country": "Korea, South",
    "lat": 35.2191,
    "lng": 128.5836,
    "population": 1081499
  },
  {
    "city": "Zhuzhou",
    "country": "China",
    "lat": 27.83,
    "lng": 113.15,
    "population": 1080000
  },
  {
    "city": "Suwon",
    "country": "Korea, South",
    "lat": 37.2578,
    "lng": 127.0109,
    "population": 1078000
  },
  {
    "city": "Vereeniging",
    "country": "South Africa",
    "lat": -26.6496,
    "lng": 27.96,
    "population": 1074000
  },
  {
    "city": "Xiangfan",
    "country": "China",
    "lat": 32.02,
    "lng": 112.13,
    "population": 1069000
  },
  {
    "city": "Ulsan",
    "country": "Korea, South",
    "lat": 35.5467,
    "lng": 129.317,
    "population": 1061000
  },
  {
    "city": "Zhucheng",
    "country": "China",
    "lat": 35.99,
    "lng": 119.3801,
    "population": 1060000
  },
  {
    "city": "Amman",
    "country": "Jordan",
    "lat": 31.95,
    "lng": 35.9333,
    "population": 1060000
  },
  {
    "city": "Dublin",
    "country": "Ireland",
    "lat": 53.3331,
    "lng": -6.2489,
    "population": 1059000
  },
  {
    "city": "Edmonton",
    "country": "Canada",
    "lat": 53.55,
    "lng": -113.5,
    "population": 1058000
  },
  {
    "city": "Sholapur",
    "country": "India",
    "lat": 17.6704,
    "lng": 75.9,
    "population": 1057000
  },
  {
    "city": "Rostov",
    "country": "Russia",
    "lat": 47.2346,
    "lng": 39.7127,
    "population": 1052000
  },
  {
    "city": "Dnipro",
    "country": "Ukraine",
    "lat": 48.48,
    "lng": 35,
    "population": 1050000
  },
  {
    "city": "Xining",
    "country": "China",
    "lat": 36.62,
    "lng": 101.77,
    "population": 1048000
  },
  {
    "city": "Zhangjiakou",
    "country": "China",
    "lat": 40.83,
    "lng": 114.93,
    "population": 1046000
  },
  {
    "city": "Gaziantep",
    "country": "Turkey",
    "lat": 37.075,
    "lng": 37.385,
    "population": 1044000
  },
  {
    "city": "Lille",
    "country": "France",
    "lat": 50.65,
    "lng": 3.08,
    "population": 1044000
  },
  {
    "city": "Ranchi",
    "country": "India",
    "lat": 23.37,
    "lng": 85.33,
    "population": 1044000
  },
  {
    "city": "Monrovia",
    "country": "Liberia",
    "lat": 6.3106,
    "lng": -10.8048,
    "population": 1041000
  },
  {
    "city": "Sao Luis",
    "country": "Brazil",
    "lat": -2.516,
    "lng": -44.266,
    "population": 1038000
  },
  {
    "city": "Amsterdam",
    "country": "Netherlands",
    "lat": 52.35,
    "lng": 4.9166,
    "population": 1031000
  },
  {
    "city": "Jerusalem",
    "country": "Israel",
    "lat": 31.7784,
    "lng": 35.2066,
    "population": 1029300
  },
  {
    "city": "Guatemala",
    "country": "Guatemala",
    "lat": 14.6211,
    "lng": -90.527,
    "population": 1024000
  },
  {
    "city": "Florianopolis",
    "country": "Brazil",
    "lat": -27.58,
    "lng": -48.52,
    "population": 1023000
  },
  {
    "city": "Zhuhai",
    "country": "China",
    "lat": 22.2769,
    "lng": 113.5678,
    "population": 1023000
  },
  {
    "city": "Port Elizabeth",
    "country": "South Africa",
    "lat": -33.97,
    "lng": 25.6,
    "population": 1021000
  },
  {
    "city": "Port Harcourt",
    "country": "Nigeria",
    "lat": 4.81,
    "lng": 7.01,
    "population": 1020000
  },
  {
    "city": "Jiamusi",
    "country": "China",
    "lat": 46.83,
    "lng": 130.35,
    "population": 1020000
  },
  {
    "city": "Ufa",
    "country": "Russia",
    "lat": 54.79,
    "lng": 56.04,
    "population": 1018000
  },
  {
    "city": "Hengyang",
    "country": "China",
    "lat": 26.88,
    "lng": 112.59,
    "population": 1016000
  },
  {
    "city": "Benxi",
    "country": "China",
    "lat": 41.3304,
    "lng": 123.75,
    "population": 1012000
  },
  {
    "city": "Haifa",
    "country": "Israel",
    "lat": 32.8204,
    "lng": 34.98,
    "population": 1011000
  },
  {
    "city": "Medina",
    "country": "Saudi Arabia",
    "lat": 24.5,
    "lng": 39.58,
    "population": 1010000
  },
  {
    "city": "Bucaramanga",
    "country": "Colombia",
    "lat": 7.1301,
    "lng": -73.1259,
    "population": 1009000
  },
  {
    "city": "Maracay",
    "country": "Venezuela",
    "lat": 10.2469,
    "lng": -67.5958,
    "population": 1007000
  },
  {
    "city": "Rotterdam",
    "country": "Netherlands",
    "lat": 51.92,
    "lng": 4.48,
    "population": 1005000
  },
  {
    "city": "Hims",
    "country": "Syria",
    "lat": 34.73,
    "lng": 36.72,
    "population": 1005000
  },
  {
    "city": "Cologne",
    "country": "Germany",
    "lat": 50.93,
    "lng": 6.95,
    "population": 1004000
  },
  {
    "city": "Qinhuangdao",
    "country": "China",
    "lat": 39.9304,
    "lng": 119.62,
    "population": 1003000
  },
  {
    "city": "Fez",
    "country": "Morocco",
    "lat": 34.0546,
    "lng": -5.0004,
    "population": 1002000
  },
  {
    "city": "Aden",
    "country": "Yemen",
    "lat": 12.7797,
    "lng": 45.0095,
    "population": 1000000
  },
  {
    "city": "Da Nang",
    "country": "Vietnam",
    "lat": 16.06,
    "lng": 108.25,
    "population": 1000000
  },
  {
    "city": "Cochabamba",
    "country": "Bolivia",
    "lat": -17.41,
    "lng": -66.17,
    "population": 1000000
  },
  {
    "city": "Yongzhou",
    "country": "China",
    "lat": 26.2304,
    "lng": 111.62,
    "population": 1000000
  },
  {
    "city": "Baoshan",
    "country": "China",
    "lat": 25.12,
    "lng": 99.15,
    "population": 1000000
  },
  {
    "city": "Kitakyushu",
    "country": "Japan",
    "lat": 33.8704,
    "lng": 130.82,
    "population": 997536
  },
  {
    "city": "Perm",
    "country": "Russia",
    "lat": 58,
    "lng": 56.25,
    "population": 997000
  },
  {
    "city": "Ahvaz",
    "country": "Iran",
    "lat": 31.28,
    "lng": 48.72,
    "population": 996000
  },
  {
    "city": "Jodhpur",
    "country": "India",
    "lat": 26.2918,
    "lng": 73.0168,
    "population": 995000
  },
  {
    "city": "San Luis Potosi",
    "country": "Mexico",
    "lat": 22.17,
    "lng": -101,
    "population": 992000
  },
  {
    "city": "Odessa",
    "country": "Ukraine",
    "lat": 46.49,
    "lng": 30.71,
    "population": 991000
  },
  {
    "city": "Yinchuan",
    "country": "China",
    "lat": 38.468,
    "lng": 106.273,
    "population": 991000
  },
  {
    "city": "Ndjamena",
    "country": "Chad",
    "lat": 12.1131,
    "lng": 15.0491,
    "population": 989000
  },
  {
    "city": "Donetsk",
    "country": "Ukraine",
    "lat": 48,
    "lng": 37.83,
    "population": 988000
  },
  {
    "city": "Joinville",
    "country": "Brazil",
    "lat": -26.32,
    "lng": -48.8399,
    "population": 988000
  },
  {
    "city": "Jiaxing",
    "country": "China",
    "lat": 30.7704,
    "lng": 120.75,
    "population": 988000
  },
  {
    "city": "Guilin",
    "country": "China",
    "lat": 25.28,
    "lng": 110.28,
    "population": 987000
  },
  {
    "city": "Dahuk",
    "country": "Iraq",
    "lat": 36.8667,
    "lng": 43,
    "population": 986000
  },
  {
    "city": "Volgograd",
    "country": "Russia",
    "lat": 48.71,
    "lng": 44.5,
    "population": 984000
  },
  {
    "city": "Guwahati",
    "country": "India",
    "lat": 26.16,
    "lng": 91.77,
    "population": 983000
  },
  {
    "city": "Yichun",
    "country": "China",
    "lat": 27.8333,
    "lng": 114.4,
    "population": 982000
  },
  {
    "city": "Yangquan",
    "country": "China",
    "lat": 37.87,
    "lng": 113.57,
    "population": 981448
  },
  {
    "city": "Natal",
    "country": "Brazil",
    "lat": -6.9838,
    "lng": -60.2699,
    "population": 980588
  },
  {
    "city": "Chandigarh",
    "country": "India",
    "lat": 30.72,
    "lng": 76.78,
    "population": 979000
  },
  {
    "city": "Gwalior",
    "country": "India",
    "lat": 26.23,
    "lng": 78.1801,
    "population": 978000
  },
  {
    "city": "Hamamatsu",
    "country": "Japan",
    "lat": 34.7181,
    "lng": 137.7327,
    "population": 977023
  },
  {
    "city": "Qom",
    "country": "Iran",
    "lat": 34.65,
    "lng": 50.95,
    "population": 973000
  },
  {
    "city": "Merida",
    "country": "Mexico",
    "lat": 20.9666,
    "lng": -89.6166,
    "population": 965000
  },
  {
    "city": "Jixi",
    "country": "China",
    "lat": 45.3,
    "lng": 130.97,
    "population": 965000
  },
  {
    "city": "Xinyi",
    "country": "China",
    "lat": 34.38,
    "lng": 118.35,
    "population": 962656
  },
  {
    "city": "Queretaro",
    "country": "Mexico",
    "lat": 20.63,
    "lng": -100.38,
    "population": 961000
  },
  {
    "city": "Pingxiang",
    "country": "China",
    "lat": 27.62,
    "lng": 113.85,
    "population": 961000
  },
  {
    "city": "Kelang",
    "country": "Malaysia",
    "lat": 3.0204,
    "lng": 101.55,
    "population": 956000
  },
  {
    "city": "Joao Pessoa",
    "country": "Brazil",
    "lat": -7.1011,
    "lng": -34.8761,
    "population": 956000
  },
  {
    "city": "Jinzhou",
    "country": "China",
    "lat": 41.1204,
    "lng": 121.1,
    "population": 956000
  },
  {
    "city": "Salerno",
    "country": "Italy",
    "lat": 40.6804,
    "lng": 14.7699,
    "population": 954265
  },
  {
    "city": "Thiruvananthapuram",
    "country": "India",
    "lat": 8.5,
    "lng": 76.95,
    "population": 954000
  },
  {
    "city": "Kozhikode",
    "country": "India",
    "lat": 11.2504,
    "lng": 75.77,
    "population": 953000
  },
  {
    "city": "Ogbomosho",
    "country": "Nigeria",
    "lat": 8.13,
    "lng": 4.24,
    "population": 951000
  },
  {
    "city": "Tiruchirappalli",
    "country": "India",
    "lat": 10.81,
    "lng": 78.69,
    "population": 951000
  },
  {
    "city": "General Santos",
    "country": "Philippines",
    "lat": 6.1108,
    "lng": 125.1747,
    "population": 950530
  },
  {
    "city": "Hue",
    "country": "Vietnam",
    "lat": 16.47,
    "lng": 107.58,
    "population": 950000
  },
  {
    "city": "Bacolod",
    "country": "Philippines",
    "lat": 10.6317,
    "lng": 122.9817,
    "population": 949354
  },
  {
    "city": "Nantong",
    "country": "China",
    "lat": 32.0304,
    "lng": 120.825,
    "population": 947000
  },
  {
    "city": "Tegucigalpa",
    "country": "Honduras",
    "lat": 14.102,
    "lng": -87.2175,
    "population": 946000
  },
  {
    "city": "Foshan",
    "country": "China",
    "lat": 23.0301,
    "lng": 113.12,
    "population": 943000
  },
  {
    "city": "Songnam",
    "country": "Korea, South",
    "lat": 37.4386,
    "lng": 127.1378,
    "population": 942000
  },
  {
    "city": "Kingston",
    "country": "Jamaica",
    "lat": 17.9771,
    "lng": -76.7674,
    "population": 937700
  },
  {
    "city": "Naypyidaw",
    "country": "Burma",
    "lat": 19.7666,
    "lng": 96.1186,
    "population": 930000
  },
  {
    "city": "Nice",
    "country": "France",
    "lat": 43.715,
    "lng": 7.265,
    "population": 927000
  },
  {
    "city": "Irbil",
    "country": "Iraq",
    "lat": 36.179,
    "lng": 44.0086,
    "population": 926000
  },
  {
    "city": "Krasnoyarsk",
    "country": "Russia",
    "lat": 56.014,
    "lng": 92.866,
    "population": 925000
  },
  {
    "city": "Djibouti",
    "country": "Djibouti",
    "lat": 11.595,
    "lng": 43.148,
    "population": 923000
  },
  {
    "city": "Olinda",
    "country": "Brazil",
    "lat": -8,
    "lng": -34.85,
    "population": 921840
  },
  {
    "city": "Managua",
    "country": "Nicaragua",
    "lat": 12.153,
    "lng": -86.2685,
    "population": 920000
  },
  {
    "city": "Antwerpen",
    "country": "Belgium",
    "lat": 51.2204,
    "lng": 4.415,
    "population": 920000
  },
  {
    "city": "Konya",
    "country": "Turkey",
    "lat": 37.875,
    "lng": 32.475,
    "population": 919000
  },
  {
    "city": "Bogor",
    "country": "Indonesia",
    "lat": -6.57,
    "lng": 106.75,
    "population": 918000
  },
  {
    "city": "Niamey",
    "country": "Niger",
    "lat": 13.5167,
    "lng": 2.1167,
    "population": 915000
  },
  {
    "city": "Xinyu",
    "country": "China",
    "lat": 27.8,
    "lng": 114.93,
    "population": 913000
  },
  {
    "city": "Huaibei",
    "country": "China",
    "lat": 33.9504,
    "lng": 116.75,
    "population": 913000
  },
  {
    "city": "Teresina",
    "country": "Brazil",
    "lat": -5.095,
    "lng": -42.78,
    "population": 907000
  },
  {
    "city": "Naha",
    "country": "Japan",
    "lat": 26.2072,
    "lng": 127.673,
    "population": 905238
  },
  {
    "city": "Xinxiang",
    "country": "China",
    "lat": 35.3204,
    "lng": 113.87,
    "population": 903000
  },
  {
    "city": "Goyang",
    "country": "Korea, South",
    "lat": 37.6527,
    "lng": 126.8372,
    "population": 903000
  },
  {
    "city": "Yibin",
    "country": "China",
    "lat": 28.77,
    "lng": 104.57,
    "population": 902000
  },
  {
    "city": "Aba",
    "country": "Nigeria",
    "lat": 5.1004,
    "lng": 7.35,
    "population": 897560
  },
  {
    "city": "Maiduguri",
    "country": "Nigeria",
    "lat": 11.85,
    "lng": 13.16,
    "population": 896000
  },
  {
    "city": "Tirana",
    "country": "Albania",
    "lat": 41.3275,
    "lng": 19.8189,
    "population": 895350
  },
  {
    "city": "Kathmandu",
    "country": "Nepal",
    "lat": 27.7167,
    "lng": 85.3166,
    "population": 895000
  },
  {
    "city": "Az Zarqa",
    "country": "Jordan",
    "lat": 32.07,
    "lng": 36.1,
    "population": 894691
  },
  {
    "city": "Tarsus",
    "country": "Turkey",
    "lat": 36.9204,
    "lng": 34.88,
    "population": 894318
  },
  {
    "city": "Bengbu",
    "country": "China",
    "lat": 32.95,
    "lng": 117.33,
    "population": 894000
  },
  {
    "city": "Mendoza",
    "country": "Argentina",
    "lat": -32.8833,
    "lng": -68.8166,
    "population": 893000
  },
  {
    "city": "Hubli",
    "country": "India",
    "lat": 15.36,
    "lng": 75.125,
    "population": 890000
  },
  {
    "city": "Concepcion",
    "country": "Chile",
    "lat": -36.83,
    "lng": -73.05,
    "population": 889725
  },
  {
    "city": "Zaria",
    "country": "Nigeria",
    "lat": 11.08,
    "lng": 7.71,
    "population": 889000
  },
  {
    "city": "Anyang",
    "country": "China",
    "lat": 36.08,
    "lng": 114.35,
    "population": 887000
  },
  {
    "city": "Cartagena",
    "country": "Colombia",
    "lat": 10.3997,
    "lng": -75.5144,
    "population": 887000
  },
  {
    "city": "Mysore",
    "country": "India",
    "lat": 12.31,
    "lng": 76.66,
    "population": 887000
  },
  {
    "city": "Ulaanbaatar",
    "country": "Mongolia",
    "lat": 47.9167,
    "lng": 106.9166,
    "population": 885000
  },
  {
    "city": "Mexicali",
    "country": "Mexico",
    "lat": 32.65,
    "lng": -115.48,
    "population": 885000
  },
  {
    "city": "Tongliao",
    "country": "China",
    "lat": 43.62,
    "lng": 122.27,
    "population": 884000
  },
  {
    "city": "Newcastle",
    "country": "United Kingdom",
    "lat": 55.0004,
    "lng": -1.6,
    "population": 882000
  },
  {
    "city": "Mombasa",
    "country": "Kenya",
    "lat": -4.04,
    "lng": 39.6899,
    "population": 882000
  },
  {
    "city": "Novo Hamburgo",
    "country": "Brazil",
    "lat": -29.7096,
    "lng": -51.14,
    "population": 876990
  },
  {
    "city": "Callao",
    "country": "Peru",
    "lat": -12.07,
    "lng": -77.135,
    "population": 876877
  },
  {
    "city": "Bilbao",
    "country": "Spain",
    "lat": 43.25,
    "lng": -2.93,
    "population": 875552
  },
  {
    "city": "Johor Bahru",
    "country": "Malaysia",
    "lat": 1.48,
    "lng": 103.73,
    "population": 875000
  },
  {
    "city": "Yichang",
    "country": "China",
    "lat": 30.7,
    "lng": 111.28,
    "population": 875000
  },
  {
    "city": "Raipur",
    "country": "India",
    "lat": 21.235,
    "lng": 81.635,
    "population": 875000
  },
  {
    "city": "Salem",
    "country": "India",
    "lat": 11.67,
    "lng": 78.1801,
    "population": 873000
  },
  {
    "city": "Yangjiang",
    "country": "China",
    "lat": 21.8504,
    "lng": 111.97,
    "population": 872363
  },
  {
    "city": "Marrakesh",
    "country": "Morocco",
    "lat": 31.63,
    "lng": -8,
    "population": 872000
  },
  {
    "city": "Kaifeng",
    "country": "China",
    "lat": 34.85,
    "lng": 114.35,
    "population": 872000
  },
  {
    "city": "Dandong",
    "country": "China",
    "lat": 40.1436,
    "lng": 124.3936,
    "population": 870000
  },
  {
    "city": "Basra",
    "country": "Iraq",
    "lat": 30.5135,
    "lng": 47.8136,
    "population": 870000
  },
  {
    "city": "Aguascalientes",
    "country": "Mexico",
    "lat": 21.8795,
    "lng": -102.2904,
    "population": 869000
  },
  {
    "city": "Okayama",
    "country": "Japan",
    "lat": 34.672,
    "lng": 133.9171,
    "population": 866092
  },
  {
    "city": "Xuanzhou",
    "country": "China",
    "lat": 30.9525,
    "lng": 118.7553,
    "population": 866000
  },
  {
    "city": "Puch'on",
    "country": "Korea, South",
    "lat": 37.4989,
    "lng": 126.7831,
    "population": 866000
  },
  {
    "city": "Rizhao",
    "country": "China",
    "lat": 35.4304,
    "lng": 119.45,
    "population": 865000
  },
  {
    "city": "Bandar Lampung",
    "country": "Indonesia",
    "lat": -5.43,
    "lng": 105.27,
    "population": 865000
  },
  {
    "city": "Palermo",
    "country": "Italy",
    "lat": 38.125,
    "lng": 13.35,
    "population": 863000
  },
  {
    "city": "Cardiff",
    "country": "United Kingdom",
    "lat": 51.5,
    "lng": -3.225,
    "population": 861400
  },
  {
    "city": "Kigali",
    "country": "Rwanda",
    "lat": -1.9536,
    "lng": 30.0605,
    "population": 860000
  },
  {
    "city": "Tampico",
    "country": "Mexico",
    "lat": 22.3,
    "lng": -97.87,
    "population": 859419
  },
  {
    "city": "Jiaozuo",
    "country": "China",
    "lat": 35.25,
    "lng": 113.22,
    "population": 857000
  },
  {
    "city": "Padang",
    "country": "Indonesia",
    "lat": -0.96,
    "lng": 100.36,
    "population": 855000
  },
  {
    "city": "Jullundur",
    "country": "India",
    "lat": 31.3349,
    "lng": 75.569,
    "population": 855000
  },
  {
    "city": "Valparaiso",
    "country": "Chile",
    "lat": -33.0478,
    "lng": -71.621,
    "population": 854000
  },
  {
    "city": "Zhenjiang",
    "country": "China",
    "lat": 32.22,
    "lng": 119.43,
    "population": 854000
  },
  {
    "city": "Zunyi",
    "country": "China",
    "lat": 27.7,
    "lng": 106.92,
    "population": 849000
  },
  {
    "city": "Anshun",
    "country": "China",
    "lat": 26.2504,
    "lng": 105.93,
    "population": 849000
  },
  {
    "city": "Pingdingshan",
    "country": "China",
    "lat": 33.7304,
    "lng": 113.3,
    "population": 849000
  },
  {
    "city": "Toulouse",
    "country": "France",
    "lat": 43.62,
    "lng": 1.4499,
    "population": 847000
  },
  {
    "city": "Nova Iguacu",
    "country": "Brazil",
    "lat": -22.74,
    "lng": -43.47,
    "population": 844583
  },
  {
    "city": "Voronezh",
    "country": "Russia",
    "lat": 51.73,
    "lng": 39.27,
    "population": 844000
  },
  {
    "city": "Bhubaneshwar",
    "country": "India",
    "lat": 20.2704,
    "lng": 85.8274,
    "population": 844000
  },
  {
    "city": "Saratov",
    "country": "Russia",
    "lat": 51.58,
    "lng": 46.03,
    "population": 843000
  },
  {
    "city": "Yuci",
    "country": "China",
    "lat": 37.6804,
    "lng": 112.73,
    "population": 840000
  },
  {
    "city": "Yancheng",
    "country": "China",
    "lat": 33.3856,
    "lng": 120.1253,
    "population": 839000
  },
  {
    "city": "Bishkek",
    "country": "Kyrgyzstan",
    "lat": 42.8731,
    "lng": 74.5852,
    "population": 837000
  },
  {
    "city": "Oslo",
    "country": "Norway",
    "lat": 59.9167,
    "lng": 10.75,
    "population": 835000
  },
  {
    "city": "Cuernavaca",
    "country": "Mexico",
    "lat": 18.9211,
    "lng": -99.24,
    "population": 834001
  },
  {
    "city": "Linfen",
    "country": "China",
    "lat": 36.0803,
    "lng": 111.52,
    "population": 834000
  },
  {
    "city": "Bangui",
    "country": "Central African Republic",
    "lat": 4.3666,
    "lng": 18.5583,
    "population": 831925
  },
  {
    "city": "Warri",
    "country": "Nigeria",
    "lat": 5.52,
    "lng": 5.76,
    "population": 830106
  },
  {
    "city": "Tucuman",
    "country": "Argentina",
    "lat": -26.816,
    "lng": -65.2166,
    "population": 830000
  },
  {
    "city": "Basel",
    "country": "Switzerland",
    "lat": 47.5804,
    "lng": 7.59,
    "population": 830000
  },
  {
    "city": "Kermanshah",
    "country": "Iran",
    "lat": 34.38,
    "lng": 47.06,
    "population": 828313
  },
  {
    "city": "Thessaloniki",
    "country": "Greece",
    "lat": 40.6961,
    "lng": 22.885,
    "population": 828000
  },
  {
    "city": "Freetown",
    "country": "Sierra Leone",
    "lat": 8.47,
    "lng": -13.2342,
    "population": 827000
  },
  {
    "city": "Kota",
    "country": "India",
    "lat": 25.18,
    "lng": 75.835,
    "population": 827000
  },
  {
    "city": "Braga",
    "country": "Portugal",
    "lat": 41.555,
    "lng": -8.4213,
    "population": 826833
  },
  {
    "city": "Jhansi",
    "country": "India",
    "lat": 25.453,
    "lng": 78.5575,
    "population": 826494
  },
  {
    "city": "Yueyang",
    "country": "China",
    "lat": 29.3801,
    "lng": 113.1,
    "population": 826000
  },
  {
    "city": "Nottingham",
    "country": "United Kingdom",
    "lat": 52.9703,
    "lng": -1.17,
    "population": 825600
  },
  {
    "city": "Agadir",
    "country": "Morocco",
    "lat": 30.44,
    "lng": -9.62,
    "population": 825467
  },
  {
    "city": "Butterworth",
    "country": "Malaysia",
    "lat": 5.4171,
    "lng": 100.4,
    "population": 821652
  },
  {
    "city": "Bareilly",
    "country": "India",
    "lat": 28.3454,
    "lng": 79.42,
    "population": 817000
  },
  {
    "city": "Jos",
    "country": "Nigeria",
    "lat": 9.93,
    "lng": 8.89,
    "population": 816824
  },
  {
    "city": "Xingyi",
    "country": "China",
    "lat": 25.0904,
    "lng": 104.89,
    "population": 816000
  },
  {
    "city": "Arequipa",
    "country": "Peru",
    "lat": -16.42,
    "lng": -71.53,
    "population": 815000
  },
  {
    "city": "Cebu",
    "country": "Philippines",
    "lat": 10.32,
    "lng": 123.9001,
    "population": 815000
  },
  {
    "city": "Liverpool",
    "country": "United Kingdom",
    "lat": 53.416,
    "lng": -2.918,
    "population": 811000
  },
  {
    "city": "Rajshahi",
    "country": "Bangladesh",
    "lat": 24.375,
    "lng": 88.605,
    "population": 810000
  },
  {
    "city": "Langfang",
    "country": "China",
    "lat": 39.5204,
    "lng": 116.68,
    "population": 810000
  },
  {
    "city": "Wuhu",
    "country": "China",
    "lat": 31.3504,
    "lng": 118.37,
    "population": 810000
  },
  {
    "city": "Culiacan",
    "country": "Mexico",
    "lat": 24.83,
    "lng": -107.38,
    "population": 809000
  },
  {
    "city": "Zhaotang",
    "country": "China",
    "lat": 27.3204,
    "lng": 103.72,
    "population": 809000
  },
  {
    "city": "Valencia",
    "country": "Spain",
    "lat": 39.485,
    "lng": -0.4,
    "population": 808000
  },
  {
    "city": "Cuiaba",
    "country": "Brazil",
    "lat": -15.5696,
    "lng": -56.085,
    "population": 806000
  },
  {
    "city": "Lingyuan",
    "country": "China",
    "lat": 41.24,
    "lng": 119.4011,
    "population": 806000
  },
  {
    "city": "Qui Nhon",
    "country": "Vietnam",
    "lat": 13.78,
    "lng": 109.18,
    "population": 805290
  },
  {
    "city": "Malang",
    "country": "Indonesia",
    "lat": -7.98,
    "lng": 112.61,
    "population": 805000
  },
  {
    "city": "Aligarh",
    "country": "India",
    "lat": 27.8922,
    "lng": 78.0618,
    "population": 805000
  },
  {
    "city": "Lvov",
    "country": "Ukraine",
    "lat": 49.835,
    "lng": 24.03,
    "population": 803880
  },
  {
    "city": "Bordeaux",
    "country": "France",
    "lat": 44.85,
    "lng": -0.595,
    "population": 803000
  },
  {
    "city": "Baoji",
    "country": "China",
    "lat": 34.38,
    "lng": 107.15,
    "population": 800000
  },
  {
    "city": "Pekanbaru",
    "country": "Indonesia",
    "lat": 0.565,
    "lng": 101.425,
    "population": 799000
  },
  {
    "city": "Oran",
    "country": "Algeria",
    "lat": 35.71,
    "lng": -0.62,
    "population": 798000
  },
  {
    "city": "Yingkow",
    "country": "China",
    "lat": 40.6703,
    "lng": 122.28,
    "population": 795000
  },
  {
    "city": "Bhiwandi",
    "country": "India",
    "lat": 19.35,
    "lng": 73.13,
    "population": 795000
  },
  {
    "city": "Liaoyang",
    "country": "China",
    "lat": 41.28,
    "lng": 123.18,
    "population": 794000
  },
  {
    "city": "Chihuahua",
    "country": "Mexico",
    "lat": 28.645,
    "lng": -106.085,
    "population": 793000
  },
  {
    "city": "Jammu",
    "country": "India",
    "lat": 32.7118,
    "lng": 74.8467,
    "population": 791000
  },
  {
    "city": "Malacca",
    "country": "Malaysia",
    "lat": 2.2064,
    "lng": 102.2465,
    "population": 788706
  },
  {
    "city": "Zaporizhzhya",
    "country": "Ukraine",
    "lat": 47.8573,
    "lng": 35.1768,
    "population": 788000
  },
  {
    "city": "Moradabad",
    "country": "India",
    "lat": 28.8418,
    "lng": 78.7568,
    "population": 787000
  },
  {
    "city": "Antalya",
    "country": "Turkey",
    "lat": 36.89,
    "lng": 30.7,
    "population": 783000
  },
  {
    "city": "Al Hudaydah",
    "country": "Yemen",
    "lat": 14.7979,
    "lng": 42.953,
    "population": 780000
  },
  {
    "city": "Islamabad",
    "country": "Pakistan",
    "lat": 33.7,
    "lng": 73.1666,
    "population": 780000
  },
  {
    "city": "Campo Grande",
    "country": "Brazil",
    "lat": -20.45,
    "lng": -54.6166,
    "population": 778000
  },
  {
    "city": "Shaoxing",
    "country": "China",
    "lat": 30.0004,
    "lng": 120.57,
    "population": 777000
  },
  {
    "city": "Yichun",
    "country": "China",
    "lat": 47.6999,
    "lng": 128.9,
    "population": 777000
  },
  {
    "city": "Mangalore",
    "country": "India",
    "lat": 12.9,
    "lng": 74.85,
    "population": 776632
  },
  {
    "city": "Wuppertal",
    "country": "Germany",
    "lat": 51.25,
    "lng": 7.17,
    "population": 776525
  },
  {
    "city": "Cheongju",
    "country": "Korea, South",
    "lat": 36.6439,
    "lng": 127.5012,
    "population": 775096
  },
  {
    "city": "Zamboanga",
    "country": "Philippines",
    "lat": 6.92,
    "lng": 122.08,
    "population": 773000
  },
  {
    "city": "Hamhung",
    "country": "Korea, North",
    "lat": 39.9101,
    "lng": 127.5454,
    "population": 773000
  },
  {
    "city": "Ilorin",
    "country": "Nigeria",
    "lat": 8.49,
    "lng": 4.55,
    "population": 771000
  },
  {
    "city": "Fuyang",
    "country": "China",
    "lat": 30.0533,
    "lng": 119.9519,
    "population": 771000
  },
  {
    "city": "Saarbrucken",
    "country": "Germany",
    "lat": 49.2504,
    "lng": 6.97,
    "population": 770001
  },
  {
    "city": "Fuxin",
    "country": "China",
    "lat": 42.0105,
    "lng": 121.66,
    "population": 770000
  },
  {
    "city": "Shiyan",
    "country": "China",
    "lat": 32.57,
    "lng": 110.78,
    "population": 770000
  },
  {
    "city": "Quetta",
    "country": "Pakistan",
    "lat": 30.22,
    "lng": 67.025,
    "population": 768000
  },
  {
    "city": "Trujillo",
    "country": "Peru",
    "lat": -8.12,
    "lng": -79.02,
    "population": 765171
  },
  {
    "city": "Kananga",
    "country": "Congo (Kinshasa)",
    "lat": -5.89,
    "lng": 22.4,
    "population": 765000
  },
  {
    "city": "Trabzon",
    "country": "Turkey",
    "lat": 40.98,
    "lng": 39.72,
    "population": 764714
  },
  {
    "city": "Cotonou",
    "country": "Benin",
    "lat": 6.4,
    "lng": 2.52,
    "population": 762000
  },
  {
    "city": "Jincheng",
    "country": "China",
    "lat": 35.5004,
    "lng": 112.83,
    "population": 760000
  },
  {
    "city": "Lodz",
    "country": "Poland",
    "lat": 51.775,
    "lng": 19.4514,
    "population": 758000
  },
  {
    "city": "Krakow",
    "country": "Poland",
    "lat": 50.06,
    "lng": 19.96,
    "population": 756000
  },
  {
    "city": "Vientiane",
    "country": "Laos",
    "lat": 17.9667,
    "lng": 102.6,
    "population": 754000
  },
  {
    "city": "Saltillo",
    "country": "Mexico",
    "lat": 25.42,
    "lng": -101.005,
    "population": 754000
  },
  {
    "city": "Sao Jose dos Campos",
    "country": "Brazil",
    "lat": -23.2,
    "lng": -45.8799,
    "population": 753769
  },
  {
    "city": "Hungnam",
    "country": "Korea, North",
    "lat": 39.8231,
    "lng": 127.6232,
    "population": 751322
  },
  {
    "city": "Taizz",
    "country": "Yemen",
    "lat": 13.6045,
    "lng": 44.0394,
    "population": 751000
  },
  {
    "city": "Pietermaritzburg",
    "country": "South Africa",
    "lat": -29.61,
    "lng": 30.39,
    "population": 750845
  },
  {
    "city": "Tangier",
    "country": "Morocco",
    "lat": 35.7473,
    "lng": -5.8327,
    "population": 750060
  },
  {
    "city": "Changhua",
    "country": "Taiwan",
    "lat": 24.0734,
    "lng": 120.5134,
    "population": 750000
  },
  {
    "city": "Hsinchu",
    "country": "Taiwan",
    "lat": 24.8168,
    "lng": 120.9767,
    "population": 750000
  },
  {
    "city": "Fargona",
    "country": "Uzbekistan",
    "lat": 40.39,
    "lng": 71.78,
    "population": 750000
  },
  {
    "city": "Namangan",
    "country": "Uzbekistan",
    "lat": 41,
    "lng": 71.67,
    "population": 750000
  },
  {
    "city": "Kolhapur",
    "country": "India",
    "lat": 16.7,
    "lng": 74.22,
    "population": 750000
  },
  {
    "city": "Liege",
    "country": "Belgium",
    "lat": 50.63,
    "lng": 5.58,
    "population": 749110
  },
  {
    "city": "Ciudad Guayana",
    "country": "Venezuela",
    "lat": 8.37,
    "lng": -62.62,
    "population": 746535
  },
  {
    "city": "Hegang",
    "country": "China",
    "lat": 47.4,
    "lng": 130.37,
    "population": 743307
  },
  {
    "city": "Riga",
    "country": "Latvia",
    "lat": 56.95,
    "lng": 24.1,
    "population": 742572
  },
  {
    "city": "Nouakchott",
    "country": "Mauritania",
    "lat": 18.0864,
    "lng": -15.9753,
    "population": 742144
  },
  {
    "city": "Naga",
    "country": "Philippines",
    "lat": 13.6192,
    "lng": 123.1814,
    "population": 741635
  },
  {
    "city": "Gdansk",
    "country": "Poland",
    "lat": 54.36,
    "lng": 18.64,
    "population": 740000
  },
  {
    "city": "Ansan",
    "country": "Korea, South",
    "lat": 37.3481,
    "lng": 126.8595,
    "population": 739493
  },
  {
    "city": "Nurnberg",
    "country": "Germany",
    "lat": 49.45,
    "lng": 11.08,
    "population": 737304
  },
  {
    "city": "Oyo",
    "country": "Nigeria",
    "lat": 7.8504,
    "lng": 3.93,
    "population": 736072
  },
  {
    "city": "Muscat",
    "country": "Oman",
    "lat": 23.6133,
    "lng": 58.5933,
    "population": 734697
  },
  {
    "city": "Amravati",
    "country": "India",
    "lat": 20.95,
    "lng": 77.77,
    "population": 734451
  },
  {
    "city": "Denpasar",
    "country": "Indonesia",
    "lat": -8.65,
    "lng": 115.22,
    "population": 732344
  },
  {
    "city": "Sokoto",
    "country": "Nigeria",
    "lat": 13.06,
    "lng": 5.24,
    "population": 732178
  },
  {
    "city": "Beihai",
    "country": "China",
    "lat": 21.4804,
    "lng": 109.1,
    "population": 728978
  },
  {
    "city": "Ashgabat",
    "country": "Turkmenistan",
    "lat": 37.95,
    "lng": 58.3833,
    "population": 727700
  },
  {
    "city": "Bremen",
    "country": "Germany",
    "lat": 53.08,
    "lng": 8.8,
    "population": 724909
  },
  {
    "city": "As Sulaymaniyah",
    "country": "Iraq",
    "lat": 35.5613,
    "lng": 45.4309,
    "population": 723170
  },
  {
    "city": "Zagreb",
    "country": "Croatia",
    "lat": 45.8,
    "lng": 16,
    "population": 722526
  },
  {
    "city": "Hannover",
    "country": "Germany",
    "lat": 52.367,
    "lng": 9.7167,
    "population": 722490
  },
  {
    "city": "Cucuta",
    "country": "Colombia",
    "lat": 7.92,
    "lng": -72.52,
    "population": 722146
  },
  {
    "city": "Hamilton",
    "country": "Canada",
    "lat": 43.25,
    "lng": -79.83,
    "population": 721053
  },
  {
    "city": "Moshi",
    "country": "Tanzania",
    "lat": -3.3396,
    "lng": 37.34,
    "population": 721018
  },
  {
    "city": "Shaoguan",
    "country": "China",
    "lat": 24.8,
    "lng": 113.58,
    "population": 720266
  },
  {
    "city": "Kumamoto",
    "country": "Japan",
    "lat": 32.8009,
    "lng": 130.7006,
    "population": 718232
  },
  {
    "city": "Lianyungang",
    "country": "China",
    "lat": 34.6004,
    "lng": 119.17,
    "population": 715600
  },
  {
    "city": "Acapulco",
    "country": "Mexico",
    "lat": 16.85,
    "lng": -99.916,
    "population": 715584
  },
  {
    "city": "Kandahar",
    "country": "Afghanistan",
    "lat": 31.61,
    "lng": 65.6949,
    "population": 715542
  },
  {
    "city": "Dehra Dun",
    "country": "India",
    "lat": 30.3204,
    "lng": 78.05,
    "population": 714223
  },
  {
    "city": "Jeonju",
    "country": "Korea, South",
    "lat": 35.8314,
    "lng": 127.1404,
    "population": 711424
  },
  {
    "city": "Samarqand",
    "country": "Uzbekistan",
    "lat": 39.67,
    "lng": 66.945,
    "population": 708000
  },
  {
    "city": "Qingyuan",
    "country": "China",
    "lat": 23.7004,
    "lng": 113.0301,
    "population": 706717
  },
  {
    "city": "Changzhi",
    "country": "China",
    "lat": 36.1839,
    "lng": 113.1053,
    "population": 706000
  },
  {
    "city": "Tolyatti",
    "country": "Russia",
    "lat": 53.4804,
    "lng": 49.53,
    "population": 702879
  },
  {
    "city": "Jaboatao",
    "country": "Brazil",
    "lat": -8.11,
    "lng": -35.02,
    "population": 702621
  },
  {
    "city": "Shizuoka",
    "country": "Japan",
    "lat": 34.9858,
    "lng": 138.3854,
    "population": 701561
  },
  {
    "city": "Bulawayo",
    "country": "Zimbabwe",
    "lat": -20.17,
    "lng": 28.58,
    "population": 699385
  },
  {
    "city": "Soledad",
    "country": "Colombia",
    "lat": 10.92,
    "lng": -74.77,
    "population": 698852
  },
  {
    "city": "Meknes",
    "country": "Morocco",
    "lat": 33.9004,
    "lng": -5.56,
    "population": 697628
  },
  {
    "city": "Sarajevo",
    "country": "Bosnia And Herzegovina",
    "lat": 43.85,
    "lng": 18.383,
    "population": 696731
  },
  {
    "city": "La Plata",
    "country": "Argentina",
    "lat": -34.9096,
    "lng": -57.96,
    "population": 694253
  },
  {
    "city": "Malegaon",
    "country": "India",
    "lat": 20.5604,
    "lng": 74.525,
    "population": 690844
  },
  {
    "city": "Enugu",
    "country": "Nigeria",
    "lat": 6.45,
    "lng": 7.5,
    "population": 688862
  },
  {
    "city": "Chisinau",
    "country": "Moldova",
    "lat": 47.005,
    "lng": 28.8577,
    "population": 688134
  },
  {
    "city": "Huangshi",
    "country": "China",
    "lat": 30.22,
    "lng": 115.1,
    "population": 688090
  },
  {
    "city": "Aracaju",
    "country": "Brazil",
    "lat": -10.9,
    "lng": -37.12,
    "population": 685356
  },
  {
    "city": "Bonn",
    "country": "Germany",
    "lat": 50.7205,
    "lng": 7.08,
    "population": 680543
  },
  {
    "city": "San Pedro Sula",
    "country": "Honduras",
    "lat": 15.5,
    "lng": -88.03,
    "population": 680091
  },
  {
    "city": "Nellore",
    "country": "India",
    "lat": 14.44,
    "lng": 79.9899,
    "population": 678004
  },
  {
    "city": "Catania",
    "country": "Italy",
    "lat": 37.5,
    "lng": 15.08,
    "population": 674542
  },
  {
    "city": "Gorakhpur",
    "country": "India",
    "lat": 26.7504,
    "lng": 83.38,
    "population": 674246
  },
  {
    "city": "Ipoh",
    "country": "Malaysia",
    "lat": 4.6,
    "lng": 101.065,
    "population": 673318
  },
  {
    "city": "Chongjin",
    "country": "Korea, North",
    "lat": 41.7846,
    "lng": 129.79,
    "population": 672614
  },
  {
    "city": "Utsunomiya",
    "country": "Japan",
    "lat": 36.55,
    "lng": 139.87,
    "population": 667752
  },
  {
    "city": "Puyang",
    "country": "China",
    "lat": 35.7004,
    "lng": 114.98,
    "population": 666322
  },
  {
    "city": "An Najaf",
    "country": "Iraq",
    "lat": 32.0003,
    "lng": 44.3354,
    "population": 665552
  },
  {
    "city": "Sao Jose dos Pinhais",
    "country": "Brazil",
    "lat": -25.57,
    "lng": -49.18,
    "population": 665063
  },
  {
    "city": "Santo Andre",
    "country": "Brazil",
    "lat": -23.6528,
    "lng": -46.5278,
    "population": 662373
  },
  {
    "city": "Bytom",
    "country": "Poland",
    "lat": 50.35,
    "lng": 18.91,
    "population": 662247
  },
  {
    "city": "Pointe-Noire",
    "country": "Congo (Brazzaville)",
    "lat": -4.77,
    "lng": 11.88,
    "population": 659084
  },
  {
    "city": "At Taif",
    "country": "Saudi Arabia",
    "lat": 21.2622,
    "lng": 40.3823,
    "population": 657282
  },
  {
    "city": "Ismailia",
    "country": "Egypt",
    "lat": 30.5903,
    "lng": 32.26,
    "population": 656135
  },
  {
    "city": "Shimoga",
    "country": "India",
    "lat": 13.9304,
    "lng": 75.56,
    "population": 654055
  },
  {
    "city": "Bien Hoa",
    "country": "Vietnam",
    "lat": 10.97,
    "lng": 106.8301,
    "population": 652646
  },
  {
    "city": "Zhanyi",
    "country": "China",
    "lat": 25.6005,
    "lng": 103.8166,
    "population": 652604
  },
  {
    "city": "Kryvyy Rih",
    "country": "Ukraine",
    "lat": 47.9283,
    "lng": 33.345,
    "population": 652380
  },
  {
    "city": "Andijon",
    "country": "Uzbekistan",
    "lat": 40.79,
    "lng": 72.34,
    "population": 650000
  },
  {
    "city": "Tiruppur",
    "country": "India",
    "lat": 11.0804,
    "lng": 77.33,
    "population": 650000
  },
  {
    "city": "Irbid",
    "country": "Jordan",
    "lat": 32.55,
    "lng": 35.85,
    "population": 650000
  },
  {
    "city": "Krasnodar",
    "country": "Russia",
    "lat": 45.02,
    "lng": 39,
    "population": 649851
  },
  {
    "city": "Zaragoza",
    "country": "Spain",
    "lat": 41.65,
    "lng": -0.89,
    "population": 649404
  },
  {
    "city": "Genoa",
    "country": "Italy",
    "lat": 44.41,
    "lng": 8.93,
    "population": 647497
  },
  {
    "city": "Lilongwe",
    "country": "Malawi",
    "lat": -13.9833,
    "lng": 33.7833,
    "population": 646750
  },
  {
    "city": "Diyarbakir",
    "country": "Turkey",
    "lat": 37.9204,
    "lng": 40.23,
    "population": 644763
  },
  {
    "city": "Morelia",
    "country": "Mexico",
    "lat": 19.7334,
    "lng": -101.1895,
    "population": 644306
  },
  {
    "city": "Ulyanovsk",
    "country": "Russia",
    "lat": 54.33,
    "lng": 48.41,
    "population": 640680
  },
  {
    "city": "Utrecht",
    "country": "Netherlands",
    "lat": 52.1003,
    "lng": 5.12,
    "population": 640000
  },
  {
    "city": "Kikwit",
    "country": "Congo (Kinshasa)",
    "lat": -5.03,
    "lng": 18.85,
    "population": 637736
  },
  {
    "city": "Al Hufuf",
    "country": "Saudi Arabia",
    "lat": 25.3487,
    "lng": 49.5856,
    "population": 637389
  },
  {
    "city": "Yogyakarta",
    "country": "Indonesia",
    "lat": -7.78,
    "lng": 110.375,
    "population": 636660
  },
  {
    "city": "Wroclaw",
    "country": "Poland",
    "lat": 51.1104,
    "lng": 17.03,
    "population": 634893
  },
  {
    "city": "Winnipeg",
    "country": "Canada",
    "lat": 49.883,
    "lng": -97.166,
    "population": 632063
  },
  {
    "city": "Izhevsk",
    "country": "Russia",
    "lat": 56.85,
    "lng": 53.23,
    "population": 631038
  },
  {
    "city": "Zhuozhou",
    "country": "China",
    "lat": 39.5401,
    "lng": 115.79,
    "population": 628000
  },
  {
    "city": "Raurkela",
    "country": "India",
    "lat": 22.2304,
    "lng": 84.83,
    "population": 625831
  },
  {
    "city": "Quebec",
    "country": "Canada",
    "lat": 46.84,
    "lng": -71.2456,
    "population": 624177
  },
  {
    "city": "Poznan",
    "country": "Poland",
    "lat": 52.4058,
    "lng": 16.8999,
    "population": 623997
  },
  {
    "city": "Bur Said",
    "country": "Egypt",
    "lat": 31.26,
    "lng": 32.29,
    "population": 623864
  },
  {
    "city": "Nanded",
    "country": "India",
    "lat": 19.17,
    "lng": 77.3,
    "population": 623708
  },
  {
    "city": "Bannu",
    "country": "Pakistan",
    "lat": 32.989,
    "lng": 70.5986,
    "population": 622419
  },
  {
    "city": "Asmara",
    "country": "Eritrea",
    "lat": 15.3333,
    "lng": 38.9333,
    "population": 620802
  },
  {
    "city": "Southend-on-Sea",
    "country": "United Kingdom",
    "lat": 51.55,
    "lng": 0.72,
    "population": 618386
  },
  {
    "city": "Dresden",
    "country": "Germany",
    "lat": 51.05,
    "lng": 13.75,
    "population": 617515
  },
  {
    "city": "Wiesbaden",
    "country": "Germany",
    "lat": 50.0804,
    "lng": 8.25,
    "population": 617126
  },
  {
    "city": "Changping",
    "country": "China",
    "lat": 40.2248,
    "lng": 116.1944,
    "population": 614821
  },
  {
    "city": "Palu",
    "country": "Indonesia",
    "lat": -0.907,
    "lng": 119.833,
    "population": 612445
  },
  {
    "city": "Taizhou",
    "country": "China",
    "lat": 32.4904,
    "lng": 119.9,
    "population": 612356
  },
  {
    "city": "Xiangtai",
    "country": "China",
    "lat": 37.05,
    "lng": 114.5,
    "population": 611739
  },
  {
    "city": "Samsun",
    "country": "Turkey",
    "lat": 41.28,
    "lng": 36.3437,
    "population": 609339
  },
  {
    "city": "Luxor",
    "country": "Egypt",
    "lat": 25.7,
    "lng": 32.65,
    "population": 609248
  },
  {
    "city": "Belgaum",
    "country": "India",
    "lat": 15.865,
    "lng": 74.505,
    "population": 608756
  },
  {
    "city": "Pontianak",
    "country": "Indonesia",
    "lat": -0.03,
    "lng": 109.32,
    "population": 607311
  },
  {
    "city": "Yaroslavl",
    "country": "Russia",
    "lat": 57.62,
    "lng": 39.87,
    "population": 606730
  },
  {
    "city": "Constantine",
    "country": "Algeria",
    "lat": 36.36,
    "lng": 6.5999,
    "population": 605179
  },
  {
    "city": "Bandjarmasin",
    "country": "Indonesia",
    "lat": -3.33,
    "lng": 114.5801,
    "population": 603576
  },
  {
    "city": "Abu Dhabi",
    "country": "United Arab Emirates",
    "lat": 24.4667,
    "lng": 54.3666,
    "population": 603492
  },
  {
    "city": "Kirkuk",
    "country": "Iraq",
    "lat": 35.4722,
    "lng": 44.3923,
    "population": 601433
  },
  {
    "city": "Sangli",
    "country": "India",
    "lat": 16.8604,
    "lng": 74.575,
    "population": 601214
  },
  {
    "city": "Barcelona",
    "country": "Venezuela",
    "lat": 10.1304,
    "lng": -64.72,
    "population": 600954
  },
  {
    "city": "Canoas",
    "country": "Brazil",
    "lat": -29.92,
    "lng": -51.18,
    "population": 600000
  },
  {
    "city": "El Mansura",
    "country": "Egypt",
    "lat": 31.0504,
    "lng": 31.38,
    "population": 600000
  },
  {
    "city": "Sohag",
    "country": "Egypt",
    "lat": 26.5504,
    "lng": 31.7,
    "population": 600000
  },
  {
    "city": "Barnaul",
    "country": "Russia",
    "lat": 53.355,
    "lng": 83.745,
    "population": 599579
  },
  {
    "city": "Zahedan",
    "country": "Iran",
    "lat": 29.5,
    "lng": 60.83,
    "population": 598887
  },
  {
    "city": "Jalalabad",
    "country": "Afghanistan",
    "lat": 34.4415,
    "lng": 70.4361,
    "population": 597971
  },
  {
    "city": "Chiclayo",
    "country": "Peru",
    "lat": -6.7629,
    "lng": -79.8366,
    "population": 596792
  },
  {
    "city": "Hermosillo",
    "country": "Mexico",
    "lat": 29.0989,
    "lng": -110.9541,
    "population": 595811
  },
  {
    "city": "Port Louis",
    "country": "Mauritius",
    "lat": -20.1666,
    "lng": 57.5,
    "population": 595491
  },
  {
    "city": "Chandrapur",
    "country": "India",
    "lat": 19.97,
    "lng": 79.3,
    "population": 595118
  },
  {
    "city": "Al Hillah",
    "country": "Saudi Arabia",
    "lat": 23.4895,
    "lng": 46.7564,
    "population": 594605
  },
  {
    "city": "Al Hillah",
    "country": "Iraq",
    "lat": 32.4721,
    "lng": 44.4217,
    "population": 594605
  },
  {
    "city": "Rasht",
    "country": "Iran",
    "lat": 37.3,
    "lng": 49.63,
    "population": 594590
  },
  {
    "city": "Nagano",
    "country": "Japan",
    "lat": 36.65,
    "lng": 138.17,
    "population": 594311
  },
  {
    "city": "Vinh",
    "country": "Vietnam",
    "lat": 18.7,
    "lng": 105.68,
    "population": 593645
  },
  {
    "city": "Abeokuta",
    "country": "Nigeria",
    "lat": 7.1604,
    "lng": 3.35,
    "population": 593100
  },
  {
    "city": "Kayseri",
    "country": "Turkey",
    "lat": 38.735,
    "lng": 35.49,
    "population": 592840
  },
  {
    "city": "Samarinda",
    "country": "Indonesia",
    "lat": -0.5,
    "lng": 117.15,
    "population": 592228
  },
  {
    "city": "Ajmer",
    "country": "India",
    "lat": 26.45,
    "lng": 74.64,
    "population": 589985
  },
  {
    "city": "Dortmund",
    "country": "Germany",
    "lat": 51.53,
    "lng": 7.45,
    "population": 588462
  },
  {
    "city": "Vladivostok",
    "country": "Russia",
    "lat": 43.13,
    "lng": 131.91,
    "population": 587022
  },
  {
    "city": "Irkutsk",
    "country": "Russia",
    "lat": 52.32,
    "lng": 104.245,
    "population": 586695
  },
  {
    "city": "Blantyre",
    "country": "Malawi",
    "lat": -15.79,
    "lng": 34.9899,
    "population": 584877
  },
  {
    "city": "Anqing",
    "country": "China",
    "lat": 30.5,
    "lng": 117.05,
    "population": 580497
  },
  {
    "city": "Cuttack",
    "country": "India",
    "lat": 20.47,
    "lng": 85.8899,
    "population": 580000
  },
  {
    "city": "Hachioji",
    "country": "Japan",
    "lat": 35.6577,
    "lng": 139.3261,
    "population": 579399
  },
  {
    "city": "Khabarovsk",
    "country": "Russia",
    "lat": 48.455,
    "lng": 135.12,
    "population": 579000
  },
  {
    "city": "Veracruz",
    "country": "Mexico",
    "lat": 19.1773,
    "lng": -96.16,
    "population": 578963
  },
  {
    "city": "Kisangani",
    "country": "Congo (Kinshasa)",
    "lat": 0.52,
    "lng": 25.22,
    "population": 578470
  },
  {
    "city": "Libreville",
    "country": "Gabon",
    "lat": 0.3854,
    "lng": 9.458,
    "population": 578156
  },
  {
    "city": "Kerman",
    "country": "Iran",
    "lat": 30.3,
    "lng": 57.08,
    "population": 577514
  },
  {
    "city": "Urmia",
    "country": "Iran",
    "lat": 37.53,
    "lng": 45,
    "population": 577307
  },
  {
    "city": "Bikaner",
    "country": "India",
    "lat": 28.0304,
    "lng": 73.3299,
    "population": 576015
  },
  {
    "city": "Quetzaltenango",
    "country": "Guatemala",
    "lat": 14.83,
    "lng": -91.52,
    "population": 575263
  },
  {
    "city": "Shihezi",
    "country": "China",
    "lat": 44.3,
    "lng": 86.0299,
    "population": 573182
  },
  {
    "city": "Kuching",
    "country": "Malaysia",
    "lat": 1.53,
    "lng": 110.33,
    "population": 570407
  },
  {
    "city": "Shuozhou",
    "country": "China",
    "lat": 39.3004,
    "lng": 112.42,
    "population": 570000
  },
  {
    "city": "Niigata",
    "country": "Japan",
    "lat": 37.92,
    "lng": 139.04,
    "population": 569797
  },
  {
    "city": "Pereira",
    "country": "Colombia",
    "lat": 4.8104,
    "lng": -75.68,
    "population": 568750
  },
  {
    "city": "Macau",
    "country": "Macau",
    "lat": 22.203,
    "lng": 113.545,
    "population": 568700
  },
  {
    "city": "Bouake",
    "country": "C𴥠DӉvoire",
    "lat": 7.69,
    "lng": -5.03,
    "population": 567481
  },
  {
    "city": "Binjai",
    "country": "Indonesia",
    "lat": 3.6204,
    "lng": 98.5001,
    "population": 564979
  },
  {
    "city": "Manama",
    "country": "Bahrain",
    "lat": 26.2361,
    "lng": 50.5831,
    "population": 563920
  },
  {
    "city": "Uberlandia",
    "country": "Brazil",
    "lat": -18.9,
    "lng": -48.28,
    "population": 563536
  },
  {
    "city": "Sorocaba",
    "country": "Brazil",
    "lat": -23.49,
    "lng": -47.47,
    "population": 563281
  },
  {
    "city": "Tongling",
    "country": "China",
    "lat": 30.9504,
    "lng": 117.78,
    "population": 562832
  },
  {
    "city": "Weihai",
    "country": "China",
    "lat": 37.5,
    "lng": 122.1,
    "population": 560255
  },
  {
    "city": "Mar del Plata",
    "country": "Argentina",
    "lat": -38,
    "lng": -57.58,
    "population": 555897
  },
  {
    "city": "Santiago de Cuba",
    "country": "Cuba",
    "lat": 20.025,
    "lng": -75.8213,
    "population": 555865
  },
  {
    "city": "Siping",
    "country": "China",
    "lat": 43.17,
    "lng": 124.33,
    "population": 555609
  },
  {
    "city": "Kagoshima",
    "country": "Japan",
    "lat": 31.586,
    "lng": 130.5611,
    "population": 555352
  },
  {
    "city": "Surakarta",
    "country": "Indonesia",
    "lat": -7.565,
    "lng": 110.825,
    "population": 555308
  },
  {
    "city": "Makhachkala",
    "country": "Russia",
    "lat": 42.98,
    "lng": 47.5,
    "population": 554981
  },
  {
    "city": "Bhavnagar",
    "country": "India",
    "lat": 21.7784,
    "lng": 72.13,
    "population": 554978
  },
  {
    "city": "Uyo",
    "country": "Nigeria",
    "lat": 5.008,
    "lng": 7.85,
    "population": 554906
  },
  {
    "city": "Bristol",
    "country": "United Kingdom",
    "lat": 51.45,
    "lng": -2.5833,
    "population": 553528
  },
  {
    "city": "Bahawalpur",
    "country": "Pakistan",
    "lat": 29.39,
    "lng": 71.675,
    "population": 552607
  },